{"code":"03190","nom":"Moulins","tour1":null,"tour2":[{"bureau":"0001","inscrits":624,"votants":383,"abstentions":241,"exprimes":359,"blancs":19,"nuls":5,"results":[{"nuance":"UG","nom":"MONNET","prenom":"Yannick","voix":204,"elu":true,"pct":56.82},{"nuance":"RN","nom":"THÈS","prenom":"Anne-Marie","voix":155,"elu":false,"pct":43.18}],"participation":61.38,"libelle":"Hotel De Ville","adresse":"12 Place De L'Hôtel De Ville, 03000 Moulins","lat":46.566069,"lon":3.33303},{"bureau":"0002","inscrits":561,"votants":339,"abstentions":222,"exprimes":315,"blancs":15,"nuls":9,"results":[{"nuance":"UG","nom":"MONNET","prenom":"Yannick","voix":191,"elu":true,"pct":60.63},{"nuance":"RN","nom":"THÈS","prenom":"Anne-Marie","voix":124,"elu":false,"pct":39.37}],"participation":60.43,"libelle":"Gymnase Du College Charles Peguy","adresse":"2 Rue Pape Carpantier, 03000 Moulins","lat":46.57048,"lon":3.335079},{"bureau":"0003","inscrits":528,"votants":318,"abstentions":210,"exprimes":296,"blancs":17,"nuls":5,"results":[{"nuance":"RN","nom":"THÈS","prenom":"Anne-Marie","voix":163,"elu":false,"pct":55.07},{"nuance":"UG","nom":"MONNET","prenom":"Yannick","voix":133,"elu":true,"pct":44.93}],"participation":60.23,"libelle":"Gymnase Du College Charles Peguy","adresse":"2 Rue Pape Carpantier, 03000 Moulins","lat":46.57048,"lon":3.335079},{"bureau":"0004","inscrits":911,"votants":556,"abstentions":355,"exprimes":507,"blancs":35,"nuls":14,"results":[{"nuance":"UG","nom":"MONNET","prenom":"Yannick","voix":287,"elu":true,"pct":56.61},{"nuance":"RN","nom":"THÈS","prenom":"Anne-Marie","voix":220,"elu":false,"pct":43.39}],"participation":61.03,"libelle":"Ecole Mixte Jean Moulin","adresse":"25 Rue Louis Blanc, 03000 Moulins","lat":46.56519,"lon":3.327159},{"bureau":"0005","inscrits":682,"votants":420,"abstentions":262,"exprimes":381,"blancs":27,"nuls":12,"results":[{"nuance":"UG","nom":"MONNET","prenom":"Yannick","voix":223,"elu":true,"pct":58.53},{"nuance":"RN","nom":"THÈS","prenom":"Anne-Marie","voix":158,"elu":false,"pct":41.47}],"participation":61.58,"libelle":"Espace Villars","adresse":"Rue Du Pont Chinard, 03000 Moulins","lat":46.563208,"lon":3.313855},{"bureau":"0006","inscrits":748,"votants":460,"abstentions":288,"exprimes":422,"blancs":30,"nuls":8,"results":[{"nuance":"UG","nom":"MONNET","prenom":"Yannick","voix":242,"elu":true,"pct":57.35},{"nuance":"RN","nom":"THÈS","prenom":"Anne-Marie","voix":180,"elu":false,"pct":42.65}],"participation":61.5,"libelle":"Groupe Scolaire Des Gateaux","adresse":"50 Avenue Du General De Gaulle, 03000 Moulins","lat":46.573321,"lon":3.322215},{"bureau":"0007","inscrits":579,"votants":274,"abstentions":305,"exprimes":253,"blancs":12,"nuls":9,"results":[{"nuance":"UG","nom":"MONNET","prenom":"Yannick","voix":153,"elu":true,"pct":60.47},{"nuance":"RN","nom":"THÈS","prenom":"Anne-Marie","voix":100,"elu":false,"pct":39.53}],"participation":47.32,"libelle":"Salle Des Chartreux","adresse":"16 Rue Des Chartreux, 03000 Moulins","lat":46.579501,"lon":3.333122},{"bureau":"0008","inscrits":610,"votants":396,"abstentions":214,"exprimes":365,"blancs":18,"nuls":13,"results":[{"nuance":"UG","nom":"MONNET","prenom":"Yannick","voix":219,"elu":true,"pct":60},{"nuance":"RN","nom":"THÈS","prenom":"Anne-Marie","voix":146,"elu":false,"pct":40}],"participation":64.92,"libelle":"Espace Villars","adresse":"Rue Du Pont Chinard, 03000 Moulins","lat":46.563208,"lon":3.313855},{"bureau":"0009","inscrits":701,"votants":411,"abstentions":290,"exprimes":371,"blancs":27,"nuls":13,"results":[{"nuance":"UG","nom":"MONNET","prenom":"Yannick","voix":216,"elu":true,"pct":58.22},{"nuance":"RN","nom":"THÈS","prenom":"Anne-Marie","voix":155,"elu":false,"pct":41.78}],"participation":58.63,"libelle":"S E S A M E","adresse":"1 - 3 Rue Berthelot, 03000 Moulins","lat":46.564594,"lon":3.335149},{"bureau":"0010","inscrits":1042,"votants":633,"abstentions":409,"exprimes":580,"blancs":37,"nuls":16,"results":[{"nuance":"UG","nom":"MONNET","prenom":"Yannick","voix":334,"elu":true,"pct":57.59},{"nuance":"RN","nom":"THÈS","prenom":"Anne-Marie","voix":246,"elu":false,"pct":42.41}],"participation":60.75,"libelle":"S E S A M E","adresse":"1-3, Rue Berthelot, 03000 Moulins","lat":46.564594,"lon":3.335149},{"bureau":"0011","inscrits":449,"votants":288,"abstentions":161,"exprimes":260,"blancs":22,"nuls":6,"results":[{"nuance":"UG","nom":"MONNET","prenom":"Yannick","voix":169,"elu":true,"pct":65},{"nuance":"RN","nom":"THÈS","prenom":"Anne-Marie","voix":91,"elu":false,"pct":35}],"participation":64.14,"libelle":"Ecole Primaire Francois Truffaut","adresse":"23 Rue Des Greves, 03000 Moulins","lat":46.570461,"lon":3.337121},{"bureau":"0012","inscrits":733,"votants":455,"abstentions":278,"exprimes":403,"blancs":45,"nuls":7,"results":[{"nuance":"UG","nom":"MONNET","prenom":"Yannick","voix":226,"elu":true,"pct":56.08},{"nuance":"RN","nom":"THÈS","prenom":"Anne-Marie","voix":177,"elu":false,"pct":43.92}],"participation":62.07,"libelle":"Salle Des Fetes","adresse":"1 Place Maréchal De Lattre De Tassigny, 03000 Moulins","lat":46.562209,"lon":3.330135},{"bureau":"0013","inscrits":570,"votants":402,"abstentions":168,"exprimes":371,"blancs":27,"nuls":4,"results":[{"nuance":"UG","nom":"MONNET","prenom":"Yannick","voix":238,"elu":true,"pct":64.15},{"nuance":"RN","nom":"THÈS","prenom":"Anne-Marie","voix":133,"elu":false,"pct":35.85}],"participation":70.53,"libelle":"Ecole Maternelle Les Coquelicots","adresse":"57 Rue Henri Barbusse, 03000 Moulins","lat":46.550581,"lon":3.335752},{"bureau":"0014","inscrits":771,"votants":484,"abstentions":287,"exprimes":422,"blancs":37,"nuls":25,"results":[{"nuance":"UG","nom":"MONNET","prenom":"Yannick","voix":265,"elu":true,"pct":62.8},{"nuance":"RN","nom":"THÈS","prenom":"Anne-Marie","voix":157,"elu":false,"pct":37.2}],"participation":62.78,"libelle":"Salle Des Fetes","adresse":"1 Place Maréchal De Lattre De Tassigny, 03000 Moulins","lat":46.562209,"lon":3.330135},{"bureau":"0015","inscrits":737,"votants":364,"abstentions":373,"exprimes":349,"blancs":6,"nuls":9,"results":[{"nuance":"UG","nom":"MONNET","prenom":"Yannick","voix":182,"elu":true,"pct":52.15},{"nuance":"RN","nom":"THÈS","prenom":"Anne-Marie","voix":167,"elu":false,"pct":47.85}],"participation":49.39,"libelle":"Salle Des Sports Des Champins","adresse":"Impasse Dieudonné Costes, 03000 Moulins","lat":46.543037,"lon":3.33769},{"bureau":"0016","inscrits":603,"votants":284,"abstentions":319,"exprimes":265,"blancs":10,"nuls":9,"results":[{"nuance":"RN","nom":"THÈS","prenom":"Anne-Marie","voix":139,"elu":false,"pct":52.45},{"nuance":"UG","nom":"MONNET","prenom":"Yannick","voix":126,"elu":true,"pct":47.55}],"participation":47.1,"libelle":"Salle Des Sports Des Champins","adresse":"Impasse Dieudonné Costes, 03000 Moulins","lat":46.543037,"lon":3.33769},{"bureau":"0017","inscrits":661,"votants":439,"abstentions":222,"exprimes":391,"blancs":37,"nuls":11,"results":[{"nuance":"UG","nom":"MONNET","prenom":"Yannick","voix":233,"elu":true,"pct":59.59},{"nuance":"RN","nom":"THÈS","prenom":"Anne-Marie","voix":158,"elu":false,"pct":40.41}],"participation":66.41,"libelle":"College Charles Peguy","adresse":"2 Rue Pape Carpantier, 03000 Moulins","lat":46.57048,"lon":3.335079},{"bureau":"0018","inscrits":515,"votants":248,"abstentions":267,"exprimes":237,"blancs":10,"nuls":1,"results":[{"nuance":"UG","nom":"MONNET","prenom":"Yannick","voix":150,"elu":true,"pct":63.29},{"nuance":"RN","nom":"THÈS","prenom":"Anne-Marie","voix":87,"elu":false,"pct":36.71}],"participation":48.16,"libelle":"Ecole Maternelle Les Coquelicots","adresse":"57 Rue Henri Barbusse, 03000 Moulins","lat":46.550581,"lon":3.335752},{"bureau":"0019","inscrits":629,"votants":358,"abstentions":271,"exprimes":337,"blancs":14,"nuls":7,"results":[{"nuance":"UG","nom":"MONNET","prenom":"Yannick","voix":190,"elu":true,"pct":56.38},{"nuance":"RN","nom":"THÈS","prenom":"Anne-Marie","voix":147,"elu":false,"pct":43.62}],"participation":56.92,"libelle":"Salle Des Sports Des Champins","adresse":"Impasse Dieudonné Costes, 03000 Moulins","lat":46.543037,"lon":3.33769},{"bureau":"0020","inscrits":80,"votants":58,"abstentions":22,"exprimes":56,"blancs":2,"nuls":0,"results":[{"nuance":"UG","nom":"MONNET","prenom":"Yannick","voix":38,"elu":true,"pct":67.86},{"nuance":"RN","nom":"THÈS","prenom":"Anne-Marie","voix":18,"elu":false,"pct":32.14}],"participation":72.5,"libelle":null,"adresse":null,"lat":null,"lon":null}]}