{"code":"04070","nom":"Digne-les-Bains","tour1":null,"tour2":[{"bureau":"0001","inscrits":831,"votants":533,"abstentions":298,"exprimes":495,"blancs":27,"nuls":11,"results":[{"nuance":"UG","nom":"BLANC","prenom":"Felix","voix":294,"elu":false,"pct":59.39},{"nuance":"RN","nom":"GIRARD","prenom":"Christian","voix":201,"elu":true,"pct":40.61}],"participation":64.14,"libelle":"1 Hotel De Ville","adresse":"1 Boulevard Martin Bret, 04000 Digne Les Bains","lat":44.093376,"lon":6.235227},{"bureau":"0002","inscrits":843,"votants":504,"abstentions":339,"exprimes":474,"blancs":18,"nuls":12,"results":[{"nuance":"UG","nom":"BLANC","prenom":"Felix","voix":282,"elu":false,"pct":59.49},{"nuance":"RN","nom":"GIRARD","prenom":"Christian","voix":192,"elu":true,"pct":40.51}],"participation":59.79,"libelle":"2 Centre Culturel Rene Char","adresse":"45 Avenue Du Huit Mai 1945, 04000 Digne Les Bains","lat":44.089782,"lon":6.23973},{"bureau":"0003","inscrits":855,"votants":600,"abstentions":255,"exprimes":549,"blancs":37,"nuls":14,"results":[{"nuance":"UG","nom":"BLANC","prenom":"Felix","voix":325,"elu":false,"pct":59.2},{"nuance":"RN","nom":"GIRARD","prenom":"Christian","voix":224,"elu":true,"pct":40.8}],"participation":70.18,"libelle":"3 Salle Des Gavots Du Centre Desmichels","adresse":"1 Boulevard Martin Bret, 04000 Digne Les Bains","lat":44.093376,"lon":6.235227},{"bureau":"0004","inscrits":807,"votants":551,"abstentions":256,"exprimes":507,"blancs":24,"nuls":20,"results":[{"nuance":"RN","nom":"GIRARD","prenom":"Christian","voix":273,"elu":true,"pct":53.85},{"nuance":"UG","nom":"BLANC","prenom":"Felix","voix":234,"elu":false,"pct":46.15}],"participation":68.28,"libelle":"4 College Maria Borrely","adresse":"5 Place Des Cordeliers, 04000 Digne Les Bains","lat":44.094664,"lon":6.237406},{"bureau":"0005","inscrits":1063,"votants":706,"abstentions":357,"exprimes":648,"blancs":37,"nuls":21,"results":[{"nuance":"UG","nom":"BLANC","prenom":"Felix","voix":350,"elu":false,"pct":54.01},{"nuance":"RN","nom":"GIRARD","prenom":"Christian","voix":298,"elu":true,"pct":45.99}],"participation":66.42,"libelle":"5 Ecole Maternelle Des Arches","adresse":"1 Rue Louise Espié, 04000 Digne Les Bains","lat":44.102799,"lon":6.232384},{"bureau":"0006","inscrits":817,"votants":579,"abstentions":238,"exprimes":512,"blancs":49,"nuls":18,"results":[{"nuance":"UG","nom":"BLANC","prenom":"Felix","voix":276,"elu":false,"pct":53.91},{"nuance":"RN","nom":"GIRARD","prenom":"Christian","voix":236,"elu":true,"pct":46.09}],"participation":70.87,"libelle":"6 Ermitage Napoleon","adresse":"33 Boulevard Gambetta, 04000 Digne Les Bains","lat":44.085546,"lon":6.227287},{"bureau":"0007","inscrits":992,"votants":758,"abstentions":234,"exprimes":694,"blancs":41,"nuls":23,"results":[{"nuance":"UG","nom":"BLANC","prenom":"Felix","voix":356,"elu":false,"pct":51.3},{"nuance":"RN","nom":"GIRARD","prenom":"Christian","voix":338,"elu":true,"pct":48.7}],"participation":76.41,"libelle":"7 Ecole De Beausoleil","adresse":"4 Chemin Des Ajoncs, 04000 Digne Les Bains","lat":44.0893,"lon":6.215558},{"bureau":"0008","inscrits":909,"votants":649,"abstentions":260,"exprimes":598,"blancs":39,"nuls":12,"results":[{"nuance":"UG","nom":"BLANC","prenom":"Felix","voix":319,"elu":false,"pct":53.34},{"nuance":"RN","nom":"GIRARD","prenom":"Christian","voix":279,"elu":true,"pct":46.66}],"participation":71.4,"libelle":"8 Ecole Des Ferreols","adresse":"2 Avenue Du Marechal Juin, 04000 Digne Les Bains","lat":44.0852,"lon":6.22671},{"bureau":"0009","inscrits":1019,"votants":775,"abstentions":244,"exprimes":701,"blancs":54,"nuls":20,"results":[{"nuance":"UG","nom":"BLANC","prenom":"Felix","voix":360,"elu":false,"pct":51.36},{"nuance":"RN","nom":"GIRARD","prenom":"Christian","voix":341,"elu":true,"pct":48.64}],"participation":76.05,"libelle":"9 Ecole De Gaubert","adresse":"Lieu Dit Les Ecoles, 04000 Digne Les Bains","lat":44.090943,"lon":6.218346},{"bureau":"0010","inscrits":845,"votants":587,"abstentions":258,"exprimes":531,"blancs":36,"nuls":20,"results":[{"nuance":"UG","nom":"BLANC","prenom":"Felix","voix":286,"elu":false,"pct":53.86},{"nuance":"RN","nom":"GIRARD","prenom":"Christian","voix":245,"elu":true,"pct":46.14}],"participation":69.47,"libelle":"10 Ecole Du Moulin","adresse":"11 Rue Du 19 Mars 1962, 04000 Digne Les Bains","lat":44.08344,"lon":6.213625},{"bureau":"0011","inscrits":1040,"votants":720,"abstentions":320,"exprimes":663,"blancs":34,"nuls":23,"results":[{"nuance":"RN","nom":"GIRARD","prenom":"Christian","voix":353,"elu":true,"pct":53.24},{"nuance":"UG","nom":"BLANC","prenom":"Felix","voix":310,"elu":false,"pct":46.76}],"participation":69.23,"libelle":"11 Ecole Des Sieyes","adresse":"4 Place Théodore Aubanel, 04000 Digne Les Bains","lat":44.083404,"lon":6.201307},{"bureau":"0012","inscrits":827,"votants":569,"abstentions":258,"exprimes":513,"blancs":41,"nuls":15,"results":[{"nuance":"RN","nom":"GIRARD","prenom":"Christian","voix":258,"elu":true,"pct":50.29},{"nuance":"UG","nom":"BLANC","prenom":"Felix","voix":255,"elu":false,"pct":49.71}],"participation":68.8,"libelle":"12 Ecole Des Augiers","adresse":"64 Route De Champtercier, 04000 Digne Les Bains","lat":44.076817,"lon":6.176046},{"bureau":"0013","inscrits":3,"votants":2,"abstentions":1,"exprimes":2,"blancs":0,"nuls":0,"results":[{"nuance":"UG","nom":"BLANC","prenom":"Felix","voix":2,"elu":false,"pct":100},{"nuance":"RN","nom":"GIRARD","prenom":"Christian","voix":0,"elu":true,"pct":0}],"participation":66.67,"libelle":null,"adresse":null,"lat":null,"lon":null}]}