{"code":"04112","nom":"Manosque","tour1":null,"tour2":[{"bureau":"0001","inscrits":964,"votants":508,"abstentions":456,"exprimes":469,"blancs":30,"nuls":9,"results":[{"nuance":"UG","nom":"WALTER","prenom":"Léo","voix":266,"elu":false,"pct":56.72},{"nuance":"UXD","nom":"VAGINAY","prenom":"Sophie","voix":203,"elu":true,"pct":43.28}],"participation":52.7,"libelle":"Hotel De Ville Bv 1","adresse":"Place De L'Hôtel De Ville, 04100 Manosque","lat":43.8338,"lon":5.782676},{"bureau":"0002","inscrits":744,"votants":548,"abstentions":196,"exprimes":495,"blancs":37,"nuls":16,"results":[{"nuance":"UG","nom":"WALTER","prenom":"Léo","voix":262,"elu":false,"pct":52.93},{"nuance":"UXD","nom":"VAGINAY","prenom":"Sophie","voix":233,"elu":true,"pct":47.07}],"participation":73.66,"libelle":"Salle Des Tilleuls Bv 2","adresse":"Rue Lemoyne, 04100 Manosque","lat":43.834369,"lon":5.784147},{"bureau":"0003","inscrits":1075,"votants":724,"abstentions":351,"exprimes":663,"blancs":52,"nuls":9,"results":[{"nuance":"UG","nom":"WALTER","prenom":"Léo","voix":337,"elu":false,"pct":50.83},{"nuance":"UXD","nom":"VAGINAY","prenom":"Sophie","voix":326,"elu":true,"pct":49.17}],"participation":67.35,"libelle":"Ecole Elementaire Combes Bv 3","adresse":"Montée Des Bassins, 04100 Manosque","lat":43.834351,"lon":5.775381},{"bureau":"0004","inscrits":739,"votants":491,"abstentions":248,"exprimes":444,"blancs":35,"nuls":12,"results":[{"nuance":"UG","nom":"WALTER","prenom":"Léo","voix":226,"elu":false,"pct":50.9},{"nuance":"UXD","nom":"VAGINAY","prenom":"Sophie","voix":218,"elu":true,"pct":49.1}],"participation":66.44,"libelle":"Ecole Maternelle Combes Bv 4","adresse":"Montée Des Bassins, 04100 Manosque","lat":43.834351,"lon":5.775381},{"bureau":"0005","inscrits":885,"votants":635,"abstentions":250,"exprimes":576,"blancs":46,"nuls":13,"results":[{"nuance":"UG","nom":"WALTER","prenom":"Léo","voix":312,"elu":false,"pct":54.17},{"nuance":"UXD","nom":"VAGINAY","prenom":"Sophie","voix":264,"elu":true,"pct":45.83}],"participation":71.75,"libelle":"Complexe Omnisport E Fachleitner Bv 5","adresse":"Montée De La Mort D'Imbert, 04100 Manosque","lat":43.842101,"lon":5.772116},{"bureau":"0006","inscrits":746,"votants":521,"abstentions":225,"exprimes":479,"blancs":34,"nuls":8,"results":[{"nuance":"UG","nom":"WALTER","prenom":"Léo","voix":253,"elu":false,"pct":52.82},{"nuance":"UXD","nom":"VAGINAY","prenom":"Sophie","voix":226,"elu":true,"pct":47.18}],"participation":69.84,"libelle":"Foyer Quintrand Bv 6","adresse":"Rue Lemoyne, 04100 Manosque","lat":43.834369,"lon":5.784147},{"bureau":"0007","inscrits":1097,"votants":667,"abstentions":430,"exprimes":599,"blancs":54,"nuls":14,"results":[{"nuance":"UXD","nom":"VAGINAY","prenom":"Sophie","voix":339,"elu":true,"pct":56.59},{"nuance":"UG","nom":"WALTER","prenom":"Léo","voix":260,"elu":false,"pct":43.41}],"participation":60.8,"libelle":"Ecole Elementaire Ponsonne Bv 7","adresse":"Place Pierre De Coubertin, 04100 Manosque","lat":43.825322,"lon":5.789856},{"bureau":"0008","inscrits":965,"votants":563,"abstentions":402,"exprimes":525,"blancs":29,"nuls":9,"results":[{"nuance":"UG","nom":"WALTER","prenom":"Léo","voix":283,"elu":false,"pct":53.9},{"nuance":"UXD","nom":"VAGINAY","prenom":"Sophie","voix":242,"elu":true,"pct":46.1}],"participation":58.34,"libelle":"Ecole Maternelle Ponsonne Bv 8","adresse":"Place Pierre De Coubertin, 04100 Manosque","lat":43.825322,"lon":5.789856},{"bureau":"0009","inscrits":991,"votants":588,"abstentions":403,"exprimes":511,"blancs":60,"nuls":17,"results":[{"nuance":"UG","nom":"WALTER","prenom":"Léo","voix":268,"elu":false,"pct":52.45},{"nuance":"UXD","nom":"VAGINAY","prenom":"Sophie","voix":243,"elu":true,"pct":47.55}],"participation":59.33,"libelle":"Ecole Maternelle St Lazare Bv 9","adresse":"Allée De Provence, 04100 Manosque","lat":43.831669,"lon":5.787756},{"bureau":"0010","inscrits":1103,"votants":662,"abstentions":441,"exprimes":595,"blancs":51,"nuls":16,"results":[{"nuance":"UG","nom":"WALTER","prenom":"Léo","voix":328,"elu":false,"pct":55.13},{"nuance":"UXD","nom":"VAGINAY","prenom":"Sophie","voix":267,"elu":true,"pct":44.87}],"participation":60.02,"libelle":"Ecole Elementaire St Lazare Bv 10","adresse":"Allée De Provence, 04100 Manosque","lat":43.831669,"lon":5.787756},{"bureau":"0011","inscrits":857,"votants":552,"abstentions":305,"exprimes":499,"blancs":37,"nuls":16,"results":[{"nuance":"UG","nom":"WALTER","prenom":"Léo","voix":262,"elu":false,"pct":52.51},{"nuance":"UXD","nom":"VAGINAY","prenom":"Sophie","voix":237,"elu":true,"pct":47.49}],"participation":64.41,"libelle":"Ecole Elementaire Colombier Bv 11","adresse":"Montée De Manenc, 04100 Manosque","lat":43.839415,"lon":5.789887},{"bureau":"0012","inscrits":977,"votants":637,"abstentions":340,"exprimes":572,"blancs":55,"nuls":10,"results":[{"nuance":"UG","nom":"WALTER","prenom":"Léo","voix":297,"elu":false,"pct":51.92},{"nuance":"UXD","nom":"VAGINAY","prenom":"Sophie","voix":275,"elu":true,"pct":48.08}],"participation":65.2,"libelle":"Ecole Maternelle Luquece Bv 12","adresse":"Bd Pasteur, 04100 Manosque","lat":43.828927,"lon":5.780833},{"bureau":"0013","inscrits":978,"votants":550,"abstentions":428,"exprimes":502,"blancs":35,"nuls":13,"results":[{"nuance":"UG","nom":"WALTER","prenom":"Léo","voix":257,"elu":false,"pct":51.2},{"nuance":"UXD","nom":"VAGINAY","prenom":"Sophie","voix":245,"elu":true,"pct":48.8}],"participation":56.24,"libelle":"Ecole Elementaire Luquece Bv 13","adresse":"Bd Pasteur, 04100 Manosque","lat":43.828927,"lon":5.780833},{"bureau":"0014","inscrits":934,"votants":644,"abstentions":290,"exprimes":584,"blancs":44,"nuls":16,"results":[{"nuance":"UXD","nom":"VAGINAY","prenom":"Sophie","voix":301,"elu":true,"pct":51.54},{"nuance":"UG","nom":"WALTER","prenom":"Léo","voix":283,"elu":false,"pct":48.46}],"participation":68.95,"libelle":"Ecole Elementaire Luquece Bv 14","adresse":"Bd Pasteur, 04100 Manosque","lat":43.828927,"lon":5.780833},{"bureau":"0015","inscrits":904,"votants":634,"abstentions":270,"exprimes":565,"blancs":58,"nuls":11,"results":[{"nuance":"UXD","nom":"VAGINAY","prenom":"Sophie","voix":292,"elu":true,"pct":51.68},{"nuance":"UG","nom":"WALTER","prenom":"Léo","voix":273,"elu":false,"pct":48.32}],"participation":70.13,"libelle":"Ecole Elementaire Plantiers Bv 15","adresse":"Rue Des Plantiers, 04100 Manosque","lat":43.822508,"lon":5.782844},{"bureau":"0016","inscrits":846,"votants":454,"abstentions":392,"exprimes":426,"blancs":20,"nuls":8,"results":[{"nuance":"UG","nom":"WALTER","prenom":"Léo","voix":243,"elu":false,"pct":57.04},{"nuance":"UXD","nom":"VAGINAY","prenom":"Sophie","voix":183,"elu":true,"pct":42.96}],"participation":53.66,"libelle":"Ecole Elementaire Plantiers Bv 16","adresse":"Rue Des Plantiers, 04100 Manosque","lat":43.822508,"lon":5.782844},{"bureau":"0017","inscrits":971,"votants":580,"abstentions":391,"exprimes":530,"blancs":39,"nuls":11,"results":[{"nuance":"UG","nom":"WALTER","prenom":"Léo","voix":285,"elu":false,"pct":53.77},{"nuance":"UXD","nom":"VAGINAY","prenom":"Sophie","voix":245,"elu":true,"pct":46.23}],"participation":59.73,"libelle":"Ecole Maternelle Plantiers Bv 17","adresse":"Rue Des Plantiers, 04100 Manosque","lat":43.822508,"lon":5.782844}]}