{"code":"05061","nom":"Gap","tour1":null,"tour2":[{"bureau":"0001","inscrits":1394,"votants":907,"abstentions":487,"exprimes":839,"blancs":54,"nuls":14,"results":[{"nuance":"UG","nom":"ALLEMAND","prenom":"Marie-José","voix":491,"elu":true,"pct":58.52},{"nuance":"RN","nom":"SAINTE-MARIE","prenom":"Jérôme","voix":348,"elu":false,"pct":41.48}],"participation":65.06,"libelle":"Cmcl","adresse":"Boulevard Pierre Et Marie Curie, 05000 Gap","lat":44.561511,"lon":6.08408},{"bureau":"0002","inscrits":1394,"votants":852,"abstentions":542,"exprimes":772,"blancs":65,"nuls":15,"results":[{"nuance":"UG","nom":"ALLEMAND","prenom":"Marie-José","voix":422,"elu":true,"pct":54.66},{"nuance":"RN","nom":"SAINTE-MARIE","prenom":"Jérôme","voix":350,"elu":false,"pct":45.34}],"participation":61.12,"libelle":"Cmcl","adresse":"Boulevard Pierre Et Marie Curie, 05000 Gap","lat":44.561511,"lon":6.08408},{"bureau":"0003","inscrits":1414,"votants":946,"abstentions":468,"exprimes":860,"blancs":66,"nuls":20,"results":[{"nuance":"UG","nom":"ALLEMAND","prenom":"Marie-José","voix":492,"elu":true,"pct":57.21},{"nuance":"RN","nom":"SAINTE-MARIE","prenom":"Jérôme","voix":368,"elu":false,"pct":42.79}],"participation":66.9,"libelle":"Ecole De Porte Colombe","adresse":"Entrée Avenue Jean Jaurès, 05000 Gap","lat":44.551752,"lon":6.070796},{"bureau":"0004","inscrits":1546,"votants":909,"abstentions":637,"exprimes":833,"blancs":52,"nuls":24,"results":[{"nuance":"UG","nom":"ALLEMAND","prenom":"Marie-José","voix":482,"elu":true,"pct":57.86},{"nuance":"RN","nom":"SAINTE-MARIE","prenom":"Jérôme","voix":351,"elu":false,"pct":42.14}],"participation":58.8,"libelle":"Ecole De Porte Colombe","adresse":"Entrée Rue Abbé Pascal, 05000 Gap","lat":44.556062,"lon":6.075405},{"bureau":"0005","inscrits":1420,"votants":845,"abstentions":575,"exprimes":769,"blancs":54,"nuls":22,"results":[{"nuance":"UG","nom":"ALLEMAND","prenom":"Marie-José","voix":458,"elu":true,"pct":59.56},{"nuance":"RN","nom":"SAINTE-MARIE","prenom":"Jérôme","voix":311,"elu":false,"pct":40.44}],"participation":59.51,"libelle":"College De Verdun","adresse":"Place De Verdun, 05000 Gap","lat":44.570967,"lon":6.097872},{"bureau":"0006","inscrits":1174,"votants":794,"abstentions":380,"exprimes":736,"blancs":49,"nuls":9,"results":[{"nuance":"UG","nom":"ALLEMAND","prenom":"Marie-José","voix":418,"elu":true,"pct":56.79},{"nuance":"RN","nom":"SAINTE-MARIE","prenom":"Jérôme","voix":318,"elu":false,"pct":43.21}],"participation":67.63,"libelle":"Ecole Maternelle De Bellevue","adresse":"Boulevard Bellevue, 05000 Gap","lat":44.560796,"lon":6.08987},{"bureau":"0007","inscrits":1418,"votants":900,"abstentions":518,"exprimes":836,"blancs":43,"nuls":21,"results":[{"nuance":"UG","nom":"ALLEMAND","prenom":"Marie-José","voix":467,"elu":true,"pct":55.86},{"nuance":"RN","nom":"SAINTE-MARIE","prenom":"Jérôme","voix":369,"elu":false,"pct":44.14}],"participation":63.47,"libelle":"Ecole Maternelle De Bellevue","adresse":"Boulevard Bellevue, 05000 Gap","lat":44.560796,"lon":6.08987},{"bureau":"0008","inscrits":1369,"votants":938,"abstentions":431,"exprimes":860,"blancs":57,"nuls":21,"results":[{"nuance":"UG","nom":"ALLEMAND","prenom":"Marie-José","voix":530,"elu":true,"pct":61.63},{"nuance":"RN","nom":"SAINTE-MARIE","prenom":"Jérôme","voix":330,"elu":false,"pct":38.37}],"participation":68.52,"libelle":"Ecole De La Gare","adresse":"Passage Montjoie, 05000 Gap","lat":44.563011,"lon":6.08203},{"bureau":"0009","inscrits":1124,"votants":786,"abstentions":338,"exprimes":715,"blancs":59,"nuls":12,"results":[{"nuance":"UG","nom":"ALLEMAND","prenom":"Marie-José","voix":413,"elu":true,"pct":57.76},{"nuance":"RN","nom":"SAINTE-MARIE","prenom":"Jérôme","voix":302,"elu":false,"pct":42.24}],"participation":69.93,"libelle":"Ecole Paul Emile Victor","adresse":"Place De Bonneval, 05000 Gap","lat":44.56796,"lon":6.075901},{"bureau":"0010","inscrits":1160,"votants":745,"abstentions":415,"exprimes":695,"blancs":37,"nuls":13,"results":[{"nuance":"UG","nom":"ALLEMAND","prenom":"Marie-José","voix":415,"elu":true,"pct":59.71},{"nuance":"RN","nom":"SAINTE-MARIE","prenom":"Jérôme","voix":280,"elu":false,"pct":40.29}],"participation":64.22,"libelle":"Centre Social Les Pleiades","adresse":"Place De Bonneval, 05000 Gap","lat":44.56796,"lon":6.075901},{"bureau":"0011","inscrits":1505,"votants":1115,"abstentions":390,"exprimes":1009,"blancs":78,"nuls":28,"results":[{"nuance":"RN","nom":"SAINTE-MARIE","prenom":"Jérôme","voix":506,"elu":false,"pct":50.15},{"nuance":"UG","nom":"ALLEMAND","prenom":"Marie-José","voix":503,"elu":true,"pct":49.85}],"participation":74.09,"libelle":"Maison De Village La Romettine","adresse":"Route De Champ Forain, 05000 Gap","lat":44.57958,"lon":6.116059},{"bureau":"0012","inscrits":1117,"votants":812,"abstentions":305,"exprimes":745,"blancs":51,"nuls":16,"results":[{"nuance":"UG","nom":"ALLEMAND","prenom":"Marie-José","voix":410,"elu":true,"pct":55.03},{"nuance":"RN","nom":"SAINTE-MARIE","prenom":"Jérôme","voix":335,"elu":false,"pct":44.97}],"participation":72.69,"libelle":"Centre Social De Beauregard","adresse":"Route De Sainte-Marguerite, 05000 Gap","lat":44.538425,"lon":6.074415},{"bureau":"0013","inscrits":1403,"votants":918,"abstentions":485,"exprimes":853,"blancs":44,"nuls":21,"results":[{"nuance":"RN","nom":"SAINTE-MARIE","prenom":"Jérôme","voix":450,"elu":false,"pct":52.75},{"nuance":"UG","nom":"ALLEMAND","prenom":"Marie-José","voix":403,"elu":true,"pct":47.25}],"participation":65.43,"libelle":"Ecole Primaire De Fontreyne","adresse":"Rue Des Boutons D'Or, 05000 Gap","lat":44.54675,"lon":6.05924},{"bureau":"0014","inscrits":1570,"votants":1112,"abstentions":458,"exprimes":998,"blancs":88,"nuls":26,"results":[{"nuance":"UG","nom":"ALLEMAND","prenom":"Marie-José","voix":516,"elu":true,"pct":51.7},{"nuance":"RN","nom":"SAINTE-MARIE","prenom":"Jérôme","voix":482,"elu":false,"pct":48.3}],"participation":70.83,"libelle":"Ecole Primaire De Fontreyne","adresse":"Rue Des Boutons D'Or, 05000 Gap","lat":44.54675,"lon":6.05924},{"bureau":"0015","inscrits":1254,"votants":818,"abstentions":436,"exprimes":743,"blancs":54,"nuls":21,"results":[{"nuance":"UG","nom":"ALLEMAND","prenom":"Marie-José","voix":386,"elu":true,"pct":51.95},{"nuance":"RN","nom":"SAINTE-MARIE","prenom":"Jérôme","voix":357,"elu":false,"pct":48.05}],"participation":65.23,"libelle":"Ecole Primaire De Fontreyne","adresse":"Rue Des Boutons D'Or, 05000 Gap","lat":44.54675,"lon":6.05924},{"bureau":"0016","inscrits":1320,"votants":881,"abstentions":439,"exprimes":791,"blancs":67,"nuls":23,"results":[{"nuance":"UG","nom":"ALLEMAND","prenom":"Marie-José","voix":407,"elu":true,"pct":51.45},{"nuance":"RN","nom":"SAINTE-MARIE","prenom":"Jérôme","voix":384,"elu":false,"pct":48.55}],"participation":66.74,"libelle":"Ecole Primaire De Fontreyne","adresse":"Rue Des Boutons D'Or, 05000 Gap","lat":44.54675,"lon":6.05924},{"bureau":"0017","inscrits":1300,"votants":941,"abstentions":359,"exprimes":875,"blancs":41,"nuls":25,"results":[{"nuance":"RN","nom":"SAINTE-MARIE","prenom":"Jérôme","voix":463,"elu":false,"pct":52.91},{"nuance":"UG","nom":"ALLEMAND","prenom":"Marie-José","voix":412,"elu":true,"pct":47.09}],"participation":72.38,"libelle":"Ecole Primaire De Fontreyne","adresse":"Rue Des Boutons D'Or, 05000 Gap","lat":44.54675,"lon":6.05924},{"bureau":"0018","inscrits":1359,"votants":809,"abstentions":550,"exprimes":743,"blancs":45,"nuls":21,"results":[{"nuance":"UG","nom":"ALLEMAND","prenom":"Marie-José","voix":443,"elu":true,"pct":59.62},{"nuance":"RN","nom":"SAINTE-MARIE","prenom":"Jérôme","voix":300,"elu":false,"pct":40.38}],"participation":59.53,"libelle":"Ecole Anselme Gras","adresse":"Rue Des Sagnieres, 05000 Gap","lat":44.548994,"lon":6.063296},{"bureau":"0019","inscrits":1039,"votants":795,"abstentions":244,"exprimes":701,"blancs":65,"nuls":29,"results":[{"nuance":"UG","nom":"ALLEMAND","prenom":"Marie-José","voix":383,"elu":true,"pct":54.64},{"nuance":"RN","nom":"SAINTE-MARIE","prenom":"Jérôme","voix":318,"elu":false,"pct":45.36}],"participation":76.52,"libelle":"Ecole Mat Des Eyssagnieres","adresse":"Route Des Eyssagnières, 05000 Gap","lat":44.544721,"lon":6.052728},{"bureau":"0020","inscrits":863,"votants":576,"abstentions":287,"exprimes":524,"blancs":34,"nuls":18,"results":[{"nuance":"UG","nom":"ALLEMAND","prenom":"Marie-José","voix":295,"elu":true,"pct":56.3},{"nuance":"RN","nom":"SAINTE-MARIE","prenom":"Jérôme","voix":229,"elu":false,"pct":43.7}],"participation":66.74,"libelle":"Campus Des Trois Fontaines","adresse":"Ancienne Route De Veynes, 05000 Gap","lat":44.557694,"lon":6.064773},{"bureau":"0021","inscrits":926,"votants":668,"abstentions":258,"exprimes":602,"blancs":49,"nuls":17,"results":[{"nuance":"UG","nom":"ALLEMAND","prenom":"Marie-José","voix":363,"elu":true,"pct":60.3},{"nuance":"RN","nom":"SAINTE-MARIE","prenom":"Jérôme","voix":239,"elu":false,"pct":39.7}],"participation":72.14,"libelle":"Campus Des Trois Fontaines","adresse":"Ancienne Route De Veynes, 05000 Gap","lat":44.557694,"lon":6.064773},{"bureau":"0022","inscrits":988,"votants":766,"abstentions":222,"exprimes":694,"blancs":59,"nuls":13,"results":[{"nuance":"UG","nom":"ALLEMAND","prenom":"Marie-José","voix":387,"elu":true,"pct":55.76},{"nuance":"RN","nom":"SAINTE-MARIE","prenom":"Jérôme","voix":307,"elu":false,"pct":44.24}],"participation":77.53,"libelle":"Maison De Quartier De Charance","adresse":"Chemin Du Clos De Charance, 05000 Gap","lat":44.574652,"lon":6.060869},{"bureau":"0023","inscrits":886,"votants":653,"abstentions":233,"exprimes":581,"blancs":54,"nuls":18,"results":[{"nuance":"UG","nom":"ALLEMAND","prenom":"Marie-José","voix":336,"elu":true,"pct":57.83},{"nuance":"RN","nom":"SAINTE-MARIE","prenom":"Jérôme","voix":245,"elu":false,"pct":42.17}],"participation":73.7,"libelle":"Maison De Quartier De Charance","adresse":"Chemin Du Clos De Charance, 05000 Gap","lat":44.574652,"lon":6.060869},{"bureau":"0024","inscrits":1115,"votants":823,"abstentions":292,"exprimes":762,"blancs":48,"nuls":13,"results":[{"nuance":"UG","nom":"ALLEMAND","prenom":"Marie-José","voix":392,"elu":true,"pct":51.44},{"nuance":"RN","nom":"SAINTE-MARIE","prenom":"Jérôme","voix":370,"elu":false,"pct":48.56}],"participation":73.81,"libelle":"Ancienne Ecole De Villarobert","adresse":"Route De Villarobert, 05000 Gap","lat":44.572838,"lon":6.088616},{"bureau":"0025","inscrits":10,"votants":6,"abstentions":4,"exprimes":6,"blancs":0,"nuls":0,"results":[{"nuance":"RN","nom":"SAINTE-MARIE","prenom":"Jérôme","voix":4,"elu":false,"pct":66.67},{"nuance":"UG","nom":"ALLEMAND","prenom":"Marie-José","voix":2,"elu":true,"pct":33.33}],"participation":60,"libelle":null,"adresse":null,"lat":null,"lon":null}]}