{"code":"06018","nom":"Biot","tour1":null,"tour2":[{"bureau":"0001","inscrits":813,"votants":582,"abstentions":231,"exprimes":567,"blancs":12,"nuls":3,"results":[{"nuance":"LR","nom":"PAUGET","prenom":"Eric","voix":368,"elu":true,"pct":64.9},{"nuance":"RN","nom":"FERRAND","prenom":"Thierry","voix":199,"elu":false,"pct":35.1}],"participation":71.59,"libelle":"Salle Des Associations","adresse":"4 Chemin Des Bachettes, 06410 Biot","lat":43.628245,"lon":7.096683},{"bureau":"0002","inscrits":862,"votants":575,"abstentions":287,"exprimes":564,"blancs":8,"nuls":3,"results":[{"nuance":"LR","nom":"PAUGET","prenom":"Eric","voix":398,"elu":true,"pct":70.57},{"nuance":"RN","nom":"FERRAND","prenom":"Thierry","voix":166,"elu":false,"pct":29.43}],"participation":66.71,"libelle":"Mairie Accueil","adresse":"10 Route De Valbonne, 06410 Biot","lat":43.628356,"lon":7.096234},{"bureau":"0003","inscrits":886,"votants":638,"abstentions":248,"exprimes":621,"blancs":8,"nuls":9,"results":[{"nuance":"LR","nom":"PAUGET","prenom":"Eric","voix":349,"elu":true,"pct":56.2},{"nuance":"RN","nom":"FERRAND","prenom":"Thierry","voix":272,"elu":false,"pct":43.8}],"participation":72.01,"libelle":"Ecole De Danse","adresse":"0 Chemin De La Fontanette, 06410 Biot","lat":43.624982,"lon":7.099441},{"bureau":"0004","inscrits":858,"votants":652,"abstentions":206,"exprimes":628,"blancs":17,"nuls":7,"results":[{"nuance":"LR","nom":"PAUGET","prenom":"Eric","voix":394,"elu":true,"pct":62.74},{"nuance":"RN","nom":"FERRAND","prenom":"Thierry","voix":234,"elu":false,"pct":37.26}],"participation":75.99,"libelle":"Ecole De Musique","adresse":"0 Chemin De La Fontanette, 06410 Biot","lat":43.624982,"lon":7.099441},{"bureau":"0005","inscrits":847,"votants":624,"abstentions":223,"exprimes":618,"blancs":5,"nuls":1,"results":[{"nuance":"LR","nom":"PAUGET","prenom":"Eric","voix":409,"elu":true,"pct":66.18},{"nuance":"RN","nom":"FERRAND","prenom":"Thierry","voix":209,"elu":false,"pct":33.82}],"participation":73.67,"libelle":"Ecole Du Moulin Neuf","adresse":"880 Route D Antibes, 06410 Biot","lat":43.623949,"lon":7.098222},{"bureau":"0006","inscrits":880,"votants":595,"abstentions":285,"exprimes":583,"blancs":12,"nuls":0,"results":[{"nuance":"LR","nom":"PAUGET","prenom":"Eric","voix":369,"elu":true,"pct":63.29},{"nuance":"RN","nom":"FERRAND","prenom":"Thierry","voix":214,"elu":false,"pct":36.71}],"participation":67.61,"libelle":"Mairie Annexe Saint Philippe","adresse":"200 Avenue Roumanille, 06410 Biot","lat":43.618157,"lon":7.075358},{"bureau":"0007","inscrits":775,"votants":539,"abstentions":236,"exprimes":528,"blancs":6,"nuls":5,"results":[{"nuance":"LR","nom":"PAUGET","prenom":"Eric","voix":310,"elu":true,"pct":58.71},{"nuance":"RN","nom":"FERRAND","prenom":"Thierry","voix":218,"elu":false,"pct":41.29}],"participation":69.55,"libelle":"Complexe Sportif Pierre Operto","adresse":"1 Chemin Des Combes, 06410 Biot","lat":43.62751,"lon":7.101969},{"bureau":"0008","inscrits":879,"votants":663,"abstentions":216,"exprimes":649,"blancs":11,"nuls":3,"results":[{"nuance":"LR","nom":"PAUGET","prenom":"Eric","voix":446,"elu":true,"pct":68.72},{"nuance":"RN","nom":"FERRAND","prenom":"Thierry","voix":203,"elu":false,"pct":31.28}],"participation":75.43,"libelle":"Ecole Du Moulin Neuf","adresse":"880 Route D Antibes, 06410 Biot","lat":43.623949,"lon":7.098222},{"bureau":"0009","inscrits":946,"votants":660,"abstentions":286,"exprimes":650,"blancs":6,"nuls":4,"results":[{"nuance":"LR","nom":"PAUGET","prenom":"Eric","voix":403,"elu":true,"pct":62},{"nuance":"RN","nom":"FERRAND","prenom":"Thierry","voix":247,"elu":false,"pct":38}],"participation":69.77,"libelle":"Ecole Eugene Olivari","adresse":"40 Avenue Saint Philippe, 06410 Biot","lat":43.617025,"lon":7.081007}]}