{"code":"06033","nom":"Carros","tour1":null,"tour2":[{"bureau":"0001","inscrits":797,"votants":552,"abstentions":245,"exprimes":497,"blancs":41,"nuls":14,"results":[{"nuance":"RN","nom":"TIVOLI","prenom":"Lionel","voix":291,"elu":true,"pct":58.55},{"nuance":"UG","nom":"TONNERRE","prenom":"Leïla","voix":206,"elu":false,"pct":41.45}],"participation":69.26,"libelle":"Foyer Rural","adresse":"0 Placo Dou Pue (puy), 06510 Carros","lat":43.793246,"lon":7.188719},{"bureau":"0002","inscrits":734,"votants":510,"abstentions":224,"exprimes":463,"blancs":33,"nuls":14,"results":[{"nuance":"RN","nom":"TIVOLI","prenom":"Lionel","voix":327,"elu":true,"pct":70.63},{"nuance":"UG","nom":"TONNERRE","prenom":"Leïla","voix":136,"elu":false,"pct":29.37}],"participation":69.48,"libelle":"Ecole Louis Fiori","adresse":"200 Rte Du Pont Charles Albert (rm 2209), 06510 Carros","lat":null,"lon":null},{"bureau":"0003","inscrits":939,"votants":505,"abstentions":434,"exprimes":464,"blancs":34,"nuls":7,"results":[{"nuance":"UG","nom":"TONNERRE","prenom":"Leïla","voix":239,"elu":false,"pct":51.51},{"nuance":"RN","nom":"TIVOLI","prenom":"Lionel","voix":225,"elu":true,"pct":48.49}],"participation":53.78,"libelle":"Ecole Laurent Spinelli","adresse":"15 Rue Du Bosquet, 06510 Carros","lat":43.775513,"lon":7.192434},{"bureau":"0004","inscrits":805,"votants":481,"abstentions":324,"exprimes":431,"blancs":38,"nuls":12,"results":[{"nuance":"RN","nom":"TIVOLI","prenom":"Lionel","voix":232,"elu":true,"pct":53.83},{"nuance":"UG","nom":"TONNERRE","prenom":"Leïla","voix":199,"elu":false,"pct":46.17}],"participation":59.75,"libelle":"Ecole Boris Vian","adresse":"2 Rue Des Selves, 06510 Carros","lat":43.773357,"lon":7.193827},{"bureau":"0005","inscrits":810,"votants":514,"abstentions":296,"exprimes":464,"blancs":37,"nuls":13,"results":[{"nuance":"RN","nom":"TIVOLI","prenom":"Lionel","voix":301,"elu":true,"pct":64.87},{"nuance":"UG","nom":"TONNERRE","prenom":"Leïla","voix":163,"elu":false,"pct":35.13}],"participation":63.46,"libelle":"Gymnase","adresse":"0 Rue De La Roya, 06510 Carros","lat":43.769126,"lon":7.194794},{"bureau":"0006","inscrits":584,"votants":379,"abstentions":205,"exprimes":345,"blancs":26,"nuls":8,"results":[{"nuance":"RN","nom":"TIVOLI","prenom":"Lionel","voix":212,"elu":true,"pct":61.45},{"nuance":"UG","nom":"TONNERRE","prenom":"Leïla","voix":133,"elu":false,"pct":38.55}],"participation":64.9,"libelle":"Ecole Jean Moulin","adresse":"2 Rue Des Abeilles, 06510 Carros","lat":43.771219,"lon":7.191919},{"bureau":"0007","inscrits":893,"votants":474,"abstentions":419,"exprimes":457,"blancs":14,"nuls":3,"results":[{"nuance":"UG","nom":"TONNERRE","prenom":"Leïla","voix":246,"elu":false,"pct":53.83},{"nuance":"RN","nom":"TIVOLI","prenom":"Lionel","voix":211,"elu":true,"pct":46.17}],"participation":53.08,"libelle":"Batiment Ecole","adresse":"0 Rue Des Arbousiers, 06510 Carros","lat":43.773641,"lon":7.190086},{"bureau":"0008","inscrits":912,"votants":653,"abstentions":259,"exprimes":590,"blancs":61,"nuls":2,"results":[{"nuance":"RN","nom":"TIVOLI","prenom":"Lionel","voix":430,"elu":true,"pct":72.88},{"nuance":"UG","nom":"TONNERRE","prenom":"Leïla","voix":160,"elu":false,"pct":27.12}],"participation":71.6,"libelle":"Salle Des Fetes","adresse":"1350 Route Des Fraises, 06510 Carros","lat":43.780888,"lon":7.202489},{"bureau":"0009","inscrits":1048,"votants":709,"abstentions":339,"exprimes":654,"blancs":39,"nuls":16,"results":[{"nuance":"RN","nom":"TIVOLI","prenom":"Lionel","voix":498,"elu":true,"pct":76.15},{"nuance":"UG","nom":"TONNERRE","prenom":"Leïla","voix":156,"elu":false,"pct":23.85}],"participation":67.65,"libelle":"Ecovie","adresse":"315 Rte De La Zone Artisanale De La Grave, 06510 Carros","lat":43.77857,"lon":7.208518},{"bureau":"0010","inscrits":815,"votants":561,"abstentions":254,"exprimes":513,"blancs":35,"nuls":13,"results":[{"nuance":"RN","nom":"TIVOLI","prenom":"Lionel","voix":322,"elu":true,"pct":62.77},{"nuance":"UG","nom":"TONNERRE","prenom":"Leïla","voix":191,"elu":false,"pct":37.23}],"participation":68.83,"libelle":"Gymnase","adresse":"0 Rue De La Roya, 06510 Carros","lat":43.769126,"lon":7.194794},{"bureau":"0011","inscrits":1020,"votants":699,"abstentions":321,"exprimes":628,"blancs":45,"nuls":26,"results":[{"nuance":"RN","nom":"TIVOLI","prenom":"Lionel","voix":455,"elu":true,"pct":72.45},{"nuance":"UG","nom":"TONNERRE","prenom":"Leïla","voix":173,"elu":false,"pct":27.55}],"participation":68.53,"libelle":"Ecovie","adresse":"315 Rte De La Zone Artisanale De La Grave, 06510 Carros","lat":43.77857,"lon":7.208518}]}