{"code":"06088","nom":"Nice","tour1":null,"tour2":[{"bureau":"0101","inscrits":784,"votants":482,"abstentions":302,"exprimes":471,"blancs":6,"nuls":5,"results":[{"nuance":"UXD","nom":"CIOTTI","prenom":"Eric","voix":221,"elu":true,"pct":46.92},{"nuance":"ENS","nom":"MONETTI","prenom":"Graig","voix":129,"elu":false,"pct":27.39},{"nuance":"UG","nom":"SALERNO","prenom":"Olivier","voix":121,"elu":false,"pct":25.69}],"participation":61.48,"libelle":"Massena","adresse":"65 Rue De France, 06000 Nice","lat":43.69562,"lon":7.258954},{"bureau":"0102","inscrits":835,"votants":536,"abstentions":299,"exprimes":524,"blancs":9,"nuls":3,"results":[{"nuance":"UXD","nom":"CIOTTI","prenom":"Eric","voix":248,"elu":true,"pct":47.33},{"nuance":"ENS","nom":"MONETTI","prenom":"Graig","voix":173,"elu":false,"pct":33.02},{"nuance":"UG","nom":"SALERNO","prenom":"Olivier","voix":103,"elu":false,"pct":19.66}],"participation":64.19,"libelle":"Meyerbeer","adresse":"65 Rue De France, 06000 Nice","lat":43.69562,"lon":7.258954},{"bureau":"0103","inscrits":777,"votants":520,"abstentions":257,"exprimes":513,"blancs":3,"nuls":4,"results":[{"nuance":"UXD","nom":"CIOTTI","prenom":"Eric","voix":239,"elu":true,"pct":46.59},{"nuance":"ENS","nom":"MONETTI","prenom":"Graig","voix":138,"elu":false,"pct":26.9},{"nuance":"UG","nom":"SALERNO","prenom":"Olivier","voix":136,"elu":false,"pct":26.51}],"participation":66.92,"libelle":"Rivoli","adresse":"65 Rue De France, 06000 Nice","lat":43.69562,"lon":7.258954},{"bureau":"0104","inscrits":868,"votants":567,"abstentions":301,"exprimes":556,"blancs":9,"nuls":2,"results":[{"nuance":"UXD","nom":"CIOTTI","prenom":"Eric","voix":272,"elu":true,"pct":48.92},{"nuance":"ENS","nom":"MONETTI","prenom":"Graig","voix":201,"elu":false,"pct":36.15},{"nuance":"UG","nom":"SALERNO","prenom":"Olivier","voix":83,"elu":false,"pct":14.93}],"participation":65.32,"libelle":"Longchamp","adresse":"0 Rue Spitalieri, 06000 Nice","lat":43.701903,"lon":7.269213},{"bureau":"0105","inscrits":964,"votants":609,"abstentions":355,"exprimes":601,"blancs":3,"nuls":5,"results":[{"nuance":"UXD","nom":"CIOTTI","prenom":"Eric","voix":235,"elu":true,"pct":39.1},{"nuance":"UG","nom":"SALERNO","prenom":"Olivier","voix":200,"elu":false,"pct":33.28},{"nuance":"ENS","nom":"MONETTI","prenom":"Graig","voix":166,"elu":false,"pct":27.62}],"participation":63.17,"libelle":"Deroulede","adresse":"0 Rue Spitalieri, 06000 Nice","lat":43.701903,"lon":7.269213},{"bureau":"0106","inscrits":902,"votants":555,"abstentions":347,"exprimes":547,"blancs":5,"nuls":3,"results":[{"nuance":"UXD","nom":"CIOTTI","prenom":"Eric","voix":253,"elu":true,"pct":46.25},{"nuance":"UG","nom":"SALERNO","prenom":"Olivier","voix":149,"elu":false,"pct":27.24},{"nuance":"ENS","nom":"MONETTI","prenom":"Graig","voix":145,"elu":false,"pct":26.51}],"participation":61.53,"libelle":"Auber","adresse":"35 Avenue Auber, 06000 Nice","lat":43.703282,"lon":7.261649},{"bureau":"0107","inscrits":953,"votants":628,"abstentions":325,"exprimes":614,"blancs":12,"nuls":2,"results":[{"nuance":"UXD","nom":"CIOTTI","prenom":"Eric","voix":265,"elu":true,"pct":43.16},{"nuance":"UG","nom":"SALERNO","prenom":"Olivier","voix":186,"elu":false,"pct":30.29},{"nuance":"ENS","nom":"MONETTI","prenom":"Graig","voix":163,"elu":false,"pct":26.55}],"participation":65.9,"libelle":"Rossini","adresse":"35 Avenue Auber, 06000 Nice","lat":43.703282,"lon":7.261649},{"bureau":"0108","inscrits":773,"votants":495,"abstentions":278,"exprimes":490,"blancs":4,"nuls":1,"results":[{"nuance":"UXD","nom":"CIOTTI","prenom":"Eric","voix":224,"elu":true,"pct":45.71},{"nuance":"ENS","nom":"MONETTI","prenom":"Graig","voix":168,"elu":false,"pct":34.29},{"nuance":"UG","nom":"SALERNO","prenom":"Olivier","voix":98,"elu":false,"pct":20}],"participation":64.04,"libelle":"Paganini","adresse":"35 Avenue Auber, 06000 Nice","lat":43.703282,"lon":7.261649},{"bureau":"0109","inscrits":993,"votants":607,"abstentions":386,"exprimes":595,"blancs":10,"nuls":2,"results":[{"nuance":"UXD","nom":"CIOTTI","prenom":"Eric","voix":227,"elu":true,"pct":38.15},{"nuance":"ENS","nom":"MONETTI","prenom":"Graig","voix":186,"elu":false,"pct":31.26},{"nuance":"UG","nom":"SALERNO","prenom":"Olivier","voix":182,"elu":false,"pct":30.59}],"participation":61.13,"libelle":"Guiglia","adresse":"35 Avenue Auber, 06000 Nice","lat":43.703282,"lon":7.261649},{"bureau":"0110","inscrits":917,"votants":603,"abstentions":314,"exprimes":588,"blancs":11,"nuls":4,"results":[{"nuance":"UXD","nom":"CIOTTI","prenom":"Eric","voix":268,"elu":true,"pct":45.58},{"nuance":"ENS","nom":"MONETTI","prenom":"Graig","voix":179,"elu":false,"pct":30.44},{"nuance":"UG","nom":"SALERNO","prenom":"Olivier","voix":141,"elu":false,"pct":23.98}],"participation":65.76,"libelle":"Berlioz","adresse":"35 Avenue Auber, 06000 Nice","lat":43.703282,"lon":7.261649},{"bureau":"0111","inscrits":969,"votants":585,"abstentions":384,"exprimes":575,"blancs":5,"nuls":5,"results":[{"nuance":"UG","nom":"SALERNO","prenom":"Olivier","voix":225,"elu":false,"pct":39.13},{"nuance":"UXD","nom":"CIOTTI","prenom":"Eric","voix":223,"elu":true,"pct":38.78},{"nuance":"ENS","nom":"MONETTI","prenom":"Graig","voix":127,"elu":false,"pct":22.09}],"participation":60.37,"libelle":"Marechal Joffre","adresse":"35 Avenue Auber, 06000 Nice","lat":43.703282,"lon":7.261649},{"bureau":"0112","inscrits":876,"votants":502,"abstentions":374,"exprimes":492,"blancs":9,"nuls":1,"results":[{"nuance":"UXD","nom":"CIOTTI","prenom":"Eric","voix":211,"elu":true,"pct":42.89},{"nuance":"UG","nom":"SALERNO","prenom":"Olivier","voix":177,"elu":false,"pct":35.98},{"nuance":"ENS","nom":"MONETTI","prenom":"Graig","voix":104,"elu":false,"pct":21.14}],"participation":57.31,"libelle":"Franklin","adresse":"13 Rue Des Potiers, 06000 Nice","lat":43.69501,"lon":7.252971},{"bureau":"0113","inscrits":871,"votants":503,"abstentions":368,"exprimes":495,"blancs":5,"nuls":3,"results":[{"nuance":"UXD","nom":"CIOTTI","prenom":"Eric","voix":197,"elu":true,"pct":39.8},{"nuance":"ENS","nom":"MONETTI","prenom":"Graig","voix":158,"elu":false,"pct":31.92},{"nuance":"UG","nom":"SALERNO","prenom":"Olivier","voix":140,"elu":false,"pct":28.28}],"participation":57.75,"libelle":"Chateauneuf","adresse":"13 Rue Des Potiers, 06000 Nice","lat":43.69501,"lon":7.252971},{"bureau":"0114","inscrits":715,"votants":411,"abstentions":304,"exprimes":403,"blancs":5,"nuls":3,"results":[{"nuance":"UXD","nom":"CIOTTI","prenom":"Eric","voix":169,"elu":true,"pct":41.94},{"nuance":"ENS","nom":"MONETTI","prenom":"Graig","voix":131,"elu":false,"pct":32.51},{"nuance":"UG","nom":"SALERNO","prenom":"Olivier","voix":103,"elu":false,"pct":25.56}],"participation":57.48,"libelle":"Baumettes","adresse":"24 Rue Dante, 06000 Nice","lat":43.69543,"lon":7.252596},{"bureau":"0115","inscrits":823,"votants":487,"abstentions":336,"exprimes":475,"blancs":8,"nuls":4,"results":[{"nuance":"UXD","nom":"CIOTTI","prenom":"Eric","voix":237,"elu":true,"pct":49.89},{"nuance":"ENS","nom":"MONETTI","prenom":"Graig","voix":123,"elu":false,"pct":25.89},{"nuance":"UG","nom":"SALERNO","prenom":"Olivier","voix":115,"elu":false,"pct":24.21}],"participation":59.17,"libelle":"Bottero","adresse":"24 Rue Dante, 06000 Nice","lat":43.69543,"lon":7.252596},{"bureau":"0116","inscrits":922,"votants":611,"abstentions":311,"exprimes":599,"blancs":12,"nuls":0,"results":[{"nuance":"UXD","nom":"CIOTTI","prenom":"Eric","voix":284,"elu":true,"pct":47.41},{"nuance":"ENS","nom":"MONETTI","prenom":"Graig","voix":160,"elu":false,"pct":26.71},{"nuance":"UG","nom":"SALERNO","prenom":"Olivier","voix":155,"elu":false,"pct":25.88}],"participation":66.27,"libelle":"Les Fleurs","adresse":"24 Rue Dante, 06000 Nice","lat":43.69543,"lon":7.252596},{"bureau":"0117","inscrits":700,"votants":410,"abstentions":290,"exprimes":405,"blancs":4,"nuls":1,"results":[{"nuance":"UXD","nom":"CIOTTI","prenom":"Eric","voix":196,"elu":true,"pct":48.4},{"nuance":"ENS","nom":"MONETTI","prenom":"Graig","voix":118,"elu":false,"pct":29.14},{"nuance":"UG","nom":"SALERNO","prenom":"Olivier","voix":91,"elu":false,"pct":22.47}],"participation":58.57,"libelle":"Dante","adresse":"23 Rue Dante, 06000 Nice","lat":43.695265,"lon":7.252284},{"bureau":"0118","inscrits":955,"votants":577,"abstentions":378,"exprimes":562,"blancs":11,"nuls":4,"results":[{"nuance":"UXD","nom":"CIOTTI","prenom":"Eric","voix":255,"elu":true,"pct":45.37},{"nuance":"UG","nom":"SALERNO","prenom":"Olivier","voix":173,"elu":false,"pct":30.78},{"nuance":"ENS","nom":"MONETTI","prenom":"Graig","voix":134,"elu":false,"pct":23.84}],"participation":60.42,"libelle":"Francois Grosso","adresse":"23 Rue Dante, 06000 Nice","lat":43.695265,"lon":7.252284},{"bureau":"0119","inscrits":751,"votants":476,"abstentions":275,"exprimes":456,"blancs":15,"nuls":5,"results":[{"nuance":"UXD","nom":"CIOTTI","prenom":"Eric","voix":201,"elu":true,"pct":44.08},{"nuance":"UG","nom":"SALERNO","prenom":"Olivier","voix":128,"elu":false,"pct":28.07},{"nuance":"ENS","nom":"MONETTI","prenom":"Graig","voix":127,"elu":false,"pct":27.85}],"participation":63.38,"libelle":"Orangers","adresse":"24 Rue Dante, 06000 Nice","lat":43.69543,"lon":7.252596},{"bureau":"0120","inscrits":997,"votants":606,"abstentions":391,"exprimes":598,"blancs":4,"nuls":4,"results":[{"nuance":"UXD","nom":"CIOTTI","prenom":"Eric","voix":249,"elu":true,"pct":41.64},{"nuance":"UG","nom":"SALERNO","prenom":"Olivier","voix":220,"elu":false,"pct":36.79},{"nuance":"ENS","nom":"MONETTI","prenom":"Graig","voix":129,"elu":false,"pct":21.57}],"participation":60.78,"libelle":"Shakespeare","adresse":"26 Rue Dante, 06000 Nice","lat":43.695389,"lon":7.252377},{"bureau":"0121","inscrits":1031,"votants":652,"abstentions":379,"exprimes":640,"blancs":9,"nuls":3,"results":[{"nuance":"UXD","nom":"CIOTTI","prenom":"Eric","voix":266,"elu":true,"pct":41.56},{"nuance":"UG","nom":"SALERNO","prenom":"Olivier","voix":221,"elu":false,"pct":34.53},{"nuance":"ENS","nom":"MONETTI","prenom":"Graig","voix":153,"elu":false,"pct":23.91}],"participation":63.24,"libelle":"Cluvier","adresse":"38 Avenue Honore D'Estienne D'Orves, 06000 Nice","lat":43.700178,"lon":7.249005},{"bureau":"0123","inscrits":825,"votants":555,"abstentions":270,"exprimes":545,"blancs":4,"nuls":6,"results":[{"nuance":"UXD","nom":"CIOTTI","prenom":"Eric","voix":285,"elu":true,"pct":52.29},{"nuance":"UG","nom":"SALERNO","prenom":"Olivier","voix":135,"elu":false,"pct":24.77},{"nuance":"ENS","nom":"MONETTI","prenom":"Graig","voix":125,"elu":false,"pct":22.94}],"participation":67.27,"libelle":"Poincare","adresse":"26 Rue Louis De Coppet, 06000 Nice","lat":43.692669,"lon":7.246031},{"bureau":"0402","inscrits":696,"votants":407,"abstentions":289,"exprimes":395,"blancs":8,"nuls":4,"results":[{"nuance":"UXD","nom":"CIOTTI","prenom":"Eric","voix":186,"elu":true,"pct":47.09},{"nuance":"UG","nom":"SALERNO","prenom":"Olivier","voix":139,"elu":false,"pct":35.19},{"nuance":"ENS","nom":"MONETTI","prenom":"Graig","voix":70,"elu":false,"pct":17.72}],"participation":58.48,"libelle":"Gambetta","adresse":"34 Avenue De Pessicart, 06100 Nice","lat":43.709357,"lon":7.251793},{"bureau":"0403","inscrits":805,"votants":522,"abstentions":283,"exprimes":505,"blancs":12,"nuls":5,"results":[{"nuance":"UXD","nom":"CIOTTI","prenom":"Eric","voix":224,"elu":true,"pct":44.36},{"nuance":"UG","nom":"SALERNO","prenom":"Olivier","voix":145,"elu":false,"pct":28.71},{"nuance":"ENS","nom":"MONETTI","prenom":"Graig","voix":136,"elu":false,"pct":26.93}],"participation":64.84,"libelle":"Parc Imperial","adresse":"2 Avenue Paul Arene, 06000 Nice","lat":43.70401,"lon":7.250593},{"bureau":"0404","inscrits":855,"votants":554,"abstentions":301,"exprimes":543,"blancs":9,"nuls":2,"results":[{"nuance":"UXD","nom":"CIOTTI","prenom":"Eric","voix":272,"elu":true,"pct":50.09},{"nuance":"ENS","nom":"MONETTI","prenom":"Graig","voix":149,"elu":false,"pct":27.44},{"nuance":"UG","nom":"SALERNO","prenom":"Olivier","voix":122,"elu":false,"pct":22.47}],"participation":64.8,"libelle":"Dauphine","adresse":"2 Avenue Paul Arene, 06000 Nice","lat":43.70401,"lon":7.250593},{"bureau":"0405","inscrits":716,"votants":457,"abstentions":259,"exprimes":423,"blancs":25,"nuls":9,"results":[{"nuance":"UXD","nom":"CHAIX","prenom":"Bernard","voix":259,"elu":true,"pct":61.23},{"nuance":"UG","nom":"QUIGNARD","prenom":"Laure","voix":164,"elu":false,"pct":38.77}],"participation":63.83,"libelle":"Cyrnos","adresse":"64 Boulevard De Cessole, 06100 Nice","lat":43.715638,"lon":7.253822},{"bureau":"0406","inscrits":556,"votants":378,"abstentions":178,"exprimes":344,"blancs":26,"nuls":8,"results":[{"nuance":"UXD","nom":"CHAIX","prenom":"Bernard","voix":175,"elu":true,"pct":50.87},{"nuance":"UG","nom":"QUIGNARD","prenom":"Laure","voix":169,"elu":false,"pct":49.13}],"participation":67.99,"libelle":"Cessole","adresse":"64 Boulevard De Cessole, 06100 Nice","lat":43.715638,"lon":7.253822},{"bureau":"0407","inscrits":980,"votants":613,"abstentions":367,"exprimes":600,"blancs":10,"nuls":3,"results":[{"nuance":"UXD","nom":"CIOTTI","prenom":"Eric","voix":239,"elu":true,"pct":39.83},{"nuance":"UG","nom":"SALERNO","prenom":"Olivier","voix":237,"elu":false,"pct":39.5},{"nuance":"ENS","nom":"MONETTI","prenom":"Graig","voix":124,"elu":false,"pct":20.67}],"participation":62.55,"libelle":"Petit Piol","adresse":"2 Avenue Paul Arene, 06000 Nice","lat":43.70401,"lon":7.250593},{"bureau":"0408","inscrits":987,"votants":600,"abstentions":387,"exprimes":567,"blancs":23,"nuls":10,"results":[{"nuance":"UG","nom":"QUIGNARD","prenom":"Laure","voix":296,"elu":false,"pct":52.2},{"nuance":"UXD","nom":"CHAIX","prenom":"Bernard","voix":271,"elu":true,"pct":47.8}],"participation":60.79,"libelle":"La Mantega","adresse":"34 Avenue De Pessicart, 06100 Nice","lat":43.709357,"lon":7.251793},{"bureau":"0409","inscrits":933,"votants":626,"abstentions":307,"exprimes":585,"blancs":32,"nuls":9,"results":[{"nuance":"UXD","nom":"CHAIX","prenom":"Bernard","voix":295,"elu":true,"pct":50.43},{"nuance":"UG","nom":"QUIGNARD","prenom":"Laure","voix":290,"elu":false,"pct":49.57}],"participation":67.1,"libelle":"Saint Paul","adresse":"34 Avenue De Pessicart, 06100 Nice","lat":43.709357,"lon":7.251793},{"bureau":"0410","inscrits":966,"votants":561,"abstentions":405,"exprimes":530,"blancs":26,"nuls":5,"results":[{"nuance":"UXD","nom":"CHAIX","prenom":"Bernard","voix":300,"elu":true,"pct":56.6},{"nuance":"UG","nom":"QUIGNARD","prenom":"Laure","voix":230,"elu":false,"pct":43.4}],"participation":58.07,"libelle":"Mirasol","adresse":"34 Avenue De Pessicart, 06100 Nice","lat":43.709357,"lon":7.251793},{"bureau":"0411","inscrits":714,"votants":429,"abstentions":285,"exprimes":409,"blancs":11,"nuls":9,"results":[{"nuance":"UXD","nom":"CHAIX","prenom":"Bernard","voix":222,"elu":true,"pct":54.28},{"nuance":"UG","nom":"QUIGNARD","prenom":"Laure","voix":187,"elu":false,"pct":45.72}],"participation":60.08,"libelle":"Frederic Mistral","adresse":"0 Avenue Jean Sebastien Bares, 06100 Nice","lat":43.724104,"lon":7.251948},{"bureau":"0412","inscrits":1071,"votants":731,"abstentions":340,"exprimes":678,"blancs":41,"nuls":12,"results":[{"nuance":"UXD","nom":"CHAIX","prenom":"Bernard","voix":406,"elu":true,"pct":59.88},{"nuance":"UG","nom":"QUIGNARD","prenom":"Laure","voix":272,"elu":false,"pct":40.12}],"participation":68.25,"libelle":"Pessicart","adresse":"189 Avenue De Pessicart, 06100 Nice","lat":43.711085,"lon":7.25053},{"bureau":"0413","inscrits":1012,"votants":730,"abstentions":282,"exprimes":680,"blancs":40,"nuls":10,"results":[{"nuance":"UXD","nom":"CHAIX","prenom":"Bernard","voix":422,"elu":true,"pct":62.06},{"nuance":"UG","nom":"QUIGNARD","prenom":"Laure","voix":258,"elu":false,"pct":37.94}],"participation":72.13,"libelle":"Righi","adresse":"189 Avenue De Pessicart, 06100 Nice","lat":43.711085,"lon":7.25053},{"bureau":"0414","inscrits":1058,"votants":643,"abstentions":415,"exprimes":594,"blancs":29,"nuls":20,"results":[{"nuance":"UXD","nom":"CHAIX","prenom":"Bernard","voix":355,"elu":true,"pct":59.76},{"nuance":"UG","nom":"QUIGNARD","prenom":"Laure","voix":239,"elu":false,"pct":40.24}],"participation":60.78,"libelle":"Berenger","adresse":"167 Avenue Cyrille Besset, 06100 Nice","lat":43.724958,"lon":7.247394},{"bureau":"0415","inscrits":1069,"votants":675,"abstentions":394,"exprimes":631,"blancs":25,"nuls":19,"results":[{"nuance":"UXD","nom":"CHAIX","prenom":"Bernard","voix":344,"elu":true,"pct":54.52},{"nuance":"UG","nom":"QUIGNARD","prenom":"Laure","voix":287,"elu":false,"pct":45.48}],"participation":63.14,"libelle":"La Valliere","adresse":"167 Avenue Cyrille Besset, 06100 Nice","lat":43.724958,"lon":7.247394},{"bureau":"0416","inscrits":1071,"votants":695,"abstentions":376,"exprimes":661,"blancs":25,"nuls":9,"results":[{"nuance":"UXD","nom":"CHAIX","prenom":"Bernard","voix":408,"elu":true,"pct":61.72},{"nuance":"UG","nom":"QUIGNARD","prenom":"Laure","voix":253,"elu":false,"pct":38.28}],"participation":64.89,"libelle":"Antoine Veran","adresse":"167 Avenue Cyrille Besset, 06100 Nice","lat":43.724958,"lon":7.247394},{"bureau":"0417","inscrits":1015,"votants":626,"abstentions":389,"exprimes":592,"blancs":30,"nuls":4,"results":[{"nuance":"UXD","nom":"CHAIX","prenom":"Bernard","voix":362,"elu":true,"pct":61.15},{"nuance":"UG","nom":"QUIGNARD","prenom":"Laure","voix":230,"elu":false,"pct":38.85}],"participation":61.67,"libelle":"Saint Sylvestre","adresse":"167 Avenue Cyrille Besset, 06100 Nice","lat":43.724958,"lon":7.247394},{"bureau":"0418","inscrits":1016,"votants":615,"abstentions":401,"exprimes":576,"blancs":34,"nuls":5,"results":[{"nuance":"UXD","nom":"CHAIX","prenom":"Bernard","voix":325,"elu":true,"pct":56.42},{"nuance":"UG","nom":"QUIGNARD","prenom":"Laure","voix":251,"elu":false,"pct":43.58}],"participation":60.53,"libelle":"Comte De Falicon","adresse":"1 Rue Guillaume Borea, 06100 Nice","lat":43.729711,"lon":7.252556},{"bureau":"0419","inscrits":953,"votants":571,"abstentions":382,"exprimes":530,"blancs":24,"nuls":17,"results":[{"nuance":"UXD","nom":"CHAIX","prenom":"Bernard","voix":292,"elu":true,"pct":55.09},{"nuance":"UG","nom":"QUIGNARD","prenom":"Laure","voix":238,"elu":false,"pct":44.91}],"participation":59.92,"libelle":"Cernuschi","adresse":"1 Rue Guillaume Borea, 06100 Nice","lat":43.729711,"lon":7.252556},{"bureau":"0420","inscrits":1052,"votants":555,"abstentions":497,"exprimes":537,"blancs":14,"nuls":4,"results":[{"nuance":"UG","nom":"QUIGNARD","prenom":"Laure","voix":327,"elu":false,"pct":60.89},{"nuance":"UXD","nom":"CHAIX","prenom":"Bernard","voix":210,"elu":true,"pct":39.11}],"participation":52.76,"libelle":"Les Oliviers","adresse":"1 Rue Guillaume Borea, 06100 Nice","lat":43.729711,"lon":7.252556},{"bureau":"0421","inscrits":1014,"votants":599,"abstentions":415,"exprimes":568,"blancs":21,"nuls":10,"results":[{"nuance":"UXD","nom":"CHAIX","prenom":"Bernard","voix":358,"elu":true,"pct":63.03},{"nuance":"UG","nom":"QUIGNARD","prenom":"Laure","voix":210,"elu":false,"pct":36.97}],"participation":59.07,"libelle":"Le Ray","adresse":"1 Rue Guillaume Borea, 06100 Nice","lat":43.729711,"lon":7.252556},{"bureau":"0422","inscrits":972,"votants":650,"abstentions":322,"exprimes":616,"blancs":27,"nuls":7,"results":[{"nuance":"UXD","nom":"CHAIX","prenom":"Bernard","voix":381,"elu":true,"pct":61.85},{"nuance":"UG","nom":"QUIGNARD","prenom":"Laure","voix":235,"elu":false,"pct":38.15}],"participation":66.87,"libelle":"Las Planas","adresse":"71 Boulevard Henri Sappia, 06100 Nice","lat":43.731044,"lon":7.25007},{"bureau":"0423","inscrits":932,"votants":524,"abstentions":408,"exprimes":497,"blancs":19,"nuls":8,"results":[{"nuance":"UXD","nom":"CHAIX","prenom":"Bernard","voix":251,"elu":true,"pct":50.5},{"nuance":"UG","nom":"QUIGNARD","prenom":"Laure","voix":246,"elu":false,"pct":49.5}],"participation":56.22,"libelle":"Henri Sappia","adresse":"71 Boulevard Henri Sappia, 06100 Nice","lat":43.731044,"lon":7.25007},{"bureau":"0424","inscrits":718,"votants":452,"abstentions":266,"exprimes":425,"blancs":23,"nuls":4,"results":[{"nuance":"UXD","nom":"CHAIX","prenom":"Bernard","voix":267,"elu":true,"pct":62.82},{"nuance":"UG","nom":"QUIGNARD","prenom":"Laure","voix":158,"elu":false,"pct":37.18}],"participation":62.95,"libelle":"Charles Baudelaire","adresse":"2 Place Fontaine Du Temple, 06100 Nice","lat":43.725201,"lon":7.256215},{"bureau":"0425","inscrits":986,"votants":689,"abstentions":297,"exprimes":632,"blancs":46,"nuls":11,"results":[{"nuance":"UXD","nom":"CHAIX","prenom":"Bernard","voix":410,"elu":true,"pct":64.87},{"nuance":"UG","nom":"QUIGNARD","prenom":"Laure","voix":222,"elu":false,"pct":35.13}],"participation":69.88,"libelle":"Saint Pancrace","adresse":"461 BIS Route De Pessicart, 06100 Nice","lat":43.737488,"lon":7.237344},{"bureau":"0426","inscrits":1084,"votants":753,"abstentions":331,"exprimes":687,"blancs":53,"nuls":13,"results":[{"nuance":"UXD","nom":"CHAIX","prenom":"Bernard","voix":454,"elu":true,"pct":66.08},{"nuance":"UG","nom":"QUIGNARD","prenom":"Laure","voix":233,"elu":false,"pct":33.92}],"participation":69.46,"libelle":"La Clua","adresse":"461 BIS Route De Pessicart, 06100 Nice","lat":43.737488,"lon":7.237344},{"bureau":"0433","inscrits":572,"votants":383,"abstentions":189,"exprimes":351,"blancs":25,"nuls":7,"results":[{"nuance":"UXD","nom":"CHAIX","prenom":"Bernard","voix":182,"elu":true,"pct":51.85},{"nuance":"UG","nom":"QUIGNARD","prenom":"Laure","voix":169,"elu":false,"pct":48.15}],"participation":66.96,"libelle":"Gravier","adresse":"2 Place Fontaine Du Temple, 06100 Nice","lat":43.725201,"lon":7.256215},{"bureau":"0501","inscrits":674,"votants":367,"abstentions":307,"exprimes":355,"blancs":10,"nuls":2,"results":[{"nuance":"UG","nom":"SALERNO","prenom":"Olivier","voix":170,"elu":false,"pct":47.89},{"nuance":"UXD","nom":"CIOTTI","prenom":"Eric","voix":122,"elu":true,"pct":34.37},{"nuance":"ENS","nom":"MONETTI","prenom":"Graig","voix":63,"elu":false,"pct":17.75}],"participation":54.45,"libelle":"Trachel","adresse":"31 Rue Vernier, 06000 Nice","lat":43.707014,"lon":7.259418},{"bureau":"0502","inscrits":642,"votants":338,"abstentions":304,"exprimes":331,"blancs":5,"nuls":2,"results":[{"nuance":"UG","nom":"SALERNO","prenom":"Olivier","voix":172,"elu":false,"pct":51.96},{"nuance":"UXD","nom":"CIOTTI","prenom":"Eric","voix":115,"elu":true,"pct":34.74},{"nuance":"ENS","nom":"MONETTI","prenom":"Graig","voix":44,"elu":false,"pct":13.29}],"participation":52.65,"libelle":"Gregoire","adresse":"31 Rue Vernier, 06000 Nice","lat":43.707014,"lon":7.259418},{"bureau":"0503","inscrits":926,"votants":517,"abstentions":409,"exprimes":493,"blancs":19,"nuls":5,"results":[{"nuance":"UG","nom":"QUIGNARD","prenom":"Laure","voix":297,"elu":false,"pct":60.24},{"nuance":"UXD","nom":"CHAIX","prenom":"Bernard","voix":196,"elu":true,"pct":39.76}],"participation":55.83,"libelle":"Dabray","adresse":"6 Rue Alfred Binet, 06000 Nice","lat":43.708481,"lon":7.259779},{"bureau":"0504","inscrits":1024,"votants":626,"abstentions":398,"exprimes":597,"blancs":19,"nuls":10,"results":[{"nuance":"UG","nom":"QUIGNARD","prenom":"Laure","voix":330,"elu":false,"pct":55.28},{"nuance":"UXD","nom":"CHAIX","prenom":"Bernard","voix":267,"elu":true,"pct":44.72}],"participation":61.13,"libelle":"Clement Roassal","adresse":"6 Rue Alfred Binet, 06000 Nice","lat":43.708481,"lon":7.259779},{"bureau":"0505","inscrits":1009,"votants":583,"abstentions":426,"exprimes":552,"blancs":28,"nuls":3,"results":[{"nuance":"UG","nom":"QUIGNARD","prenom":"Laure","voix":329,"elu":false,"pct":59.6},{"nuance":"UXD","nom":"CHAIX","prenom":"Bernard","voix":223,"elu":true,"pct":40.4}],"participation":57.78,"libelle":"Vernier","adresse":"6 Rue Alfred Binet, 06000 Nice","lat":43.708481,"lon":7.259779},{"bureau":"0506","inscrits":943,"votants":580,"abstentions":363,"exprimes":541,"blancs":29,"nuls":10,"results":[{"nuance":"UG","nom":"QUIGNARD","prenom":"Laure","voix":301,"elu":false,"pct":55.64},{"nuance":"UXD","nom":"CHAIX","prenom":"Bernard","voix":240,"elu":true,"pct":44.36}],"participation":61.51,"libelle":"Alfred Binet","adresse":"6 Rue Alfred Binet, 06000 Nice","lat":43.708481,"lon":7.259779},{"bureau":"0507","inscrits":953,"votants":617,"abstentions":336,"exprimes":593,"blancs":18,"nuls":6,"results":[{"nuance":"UG","nom":"QUIGNARD","prenom":"Laure","voix":322,"elu":false,"pct":54.3},{"nuance":"UXD","nom":"CHAIX","prenom":"Bernard","voix":271,"elu":true,"pct":45.7}],"participation":64.74,"libelle":"Joseph Garnier","adresse":"6 Rue Alfred Binet, 06000 Nice","lat":43.708481,"lon":7.259779},{"bureau":"0508","inscrits":958,"votants":610,"abstentions":348,"exprimes":566,"blancs":41,"nuls":3,"results":[{"nuance":"UG","nom":"QUIGNARD","prenom":"Laure","voix":311,"elu":false,"pct":54.95},{"nuance":"UXD","nom":"CHAIX","prenom":"Bernard","voix":255,"elu":true,"pct":45.05}],"participation":63.67,"libelle":"Beatrix","adresse":"6 Rue Alfred Binet, 06100 Nice","lat":43.708481,"lon":7.259779},{"bureau":"0509","inscrits":960,"votants":566,"abstentions":394,"exprimes":515,"blancs":39,"nuls":12,"results":[{"nuance":"UG","nom":"QUIGNARD","prenom":"Laure","voix":304,"elu":false,"pct":59.03},{"nuance":"UXD","nom":"CHAIX","prenom":"Bernard","voix":211,"elu":true,"pct":40.97}],"participation":58.96,"libelle":"Mirabeau","adresse":"78 Avenue Saint Lambert, 06100 Nice","lat":43.712294,"lon":7.26428},{"bureau":"0510","inscrits":919,"votants":517,"abstentions":402,"exprimes":480,"blancs":24,"nuls":13,"results":[{"nuance":"UG","nom":"QUIGNARD","prenom":"Laure","voix":277,"elu":false,"pct":57.71},{"nuance":"UXD","nom":"CHAIX","prenom":"Bernard","voix":203,"elu":true,"pct":42.29}],"participation":56.26,"libelle":"Malaussena","adresse":"78 Avenue Saint Lambert, 06100 Nice","lat":43.712294,"lon":7.26428},{"bureau":"0511","inscrits":906,"votants":576,"abstentions":330,"exprimes":529,"blancs":35,"nuls":12,"results":[{"nuance":"UG","nom":"QUIGNARD","prenom":"Laure","voix":270,"elu":false,"pct":51.04},{"nuance":"UXD","nom":"CHAIX","prenom":"Bernard","voix":259,"elu":true,"pct":48.96}],"participation":63.58,"libelle":"Liberation","adresse":"78 Avenue Saint Lambert, 06100 Nice","lat":43.712294,"lon":7.26428},{"bureau":"0512","inscrits":1015,"votants":624,"abstentions":391,"exprimes":591,"blancs":30,"nuls":3,"results":[{"nuance":"UG","nom":"QUIGNARD","prenom":"Laure","voix":337,"elu":false,"pct":57.02},{"nuance":"UXD","nom":"CHAIX","prenom":"Bernard","voix":254,"elu":true,"pct":42.98}],"participation":61.48,"libelle":"Villermont","adresse":"78 Avenue Saint Lambert, 06100 Nice","lat":43.712294,"lon":7.26428},{"bureau":"0513","inscrits":994,"votants":644,"abstentions":350,"exprimes":609,"blancs":27,"nuls":8,"results":[{"nuance":"UG","nom":"QUIGNARD","prenom":"Laure","voix":348,"elu":false,"pct":57.14},{"nuance":"UXD","nom":"CHAIX","prenom":"Bernard","voix":261,"elu":true,"pct":42.86}],"participation":64.79,"libelle":"Borriglione","adresse":"78 Avenue Saint Lambert, 06100 Nice","lat":43.712294,"lon":7.26428},{"bureau":"0514","inscrits":921,"votants":608,"abstentions":313,"exprimes":558,"blancs":38,"nuls":12,"results":[{"nuance":"UG","nom":"QUIGNARD","prenom":"Laure","voix":283,"elu":false,"pct":50.72},{"nuance":"UXD","nom":"CHAIX","prenom":"Bernard","voix":275,"elu":true,"pct":49.28}],"participation":66.02,"libelle":"Chambrun","adresse":"60 Avenue Alfred Borriglione, 06100 Nice","lat":43.71665,"lon":7.261517},{"bureau":"0515","inscrits":952,"votants":592,"abstentions":360,"exprimes":553,"blancs":29,"nuls":10,"results":[{"nuance":"UG","nom":"QUIGNARD","prenom":"Laure","voix":281,"elu":false,"pct":50.81},{"nuance":"UXD","nom":"CHAIX","prenom":"Bernard","voix":272,"elu":true,"pct":49.19}],"participation":62.18,"libelle":"Les Lilas","adresse":"60 Avenue Alfred Borriglione, 06100 Nice","lat":43.71665,"lon":7.261517},{"bureau":"0516","inscrits":1011,"votants":641,"abstentions":370,"exprimes":593,"blancs":37,"nuls":11,"results":[{"nuance":"UG","nom":"QUIGNARD","prenom":"Laure","voix":348,"elu":false,"pct":58.68},{"nuance":"UXD","nom":"CHAIX","prenom":"Bernard","voix":245,"elu":true,"pct":41.32}],"participation":63.4,"libelle":"Moliere","adresse":"17 Avenue Francois Bottau, 06100 Nice","lat":43.715418,"lon":7.254087},{"bureau":"0517","inscrits":994,"votants":607,"abstentions":387,"exprimes":560,"blancs":43,"nuls":4,"results":[{"nuance":"UG","nom":"QUIGNARD","prenom":"Laure","voix":292,"elu":false,"pct":52.14},{"nuance":"UXD","nom":"CHAIX","prenom":"Bernard","voix":268,"elu":true,"pct":47.86}],"participation":61.07,"libelle":"Clement Ader","adresse":"17 Avenue Francois Bottau, 06100 Nice","lat":43.715418,"lon":7.254087},{"bureau":"0518","inscrits":991,"votants":631,"abstentions":360,"exprimes":595,"blancs":29,"nuls":7,"results":[{"nuance":"UG","nom":"QUIGNARD","prenom":"Laure","voix":302,"elu":false,"pct":50.76},{"nuance":"UXD","nom":"CHAIX","prenom":"Bernard","voix":293,"elu":true,"pct":49.24}],"participation":63.67,"libelle":"Santa Fior","adresse":"17 Avenue Francois Bottau, 06100 Nice","lat":43.715418,"lon":7.254087},{"bureau":"0519","inscrits":914,"votants":564,"abstentions":350,"exprimes":530,"blancs":27,"nuls":7,"results":[{"nuance":"UG","nom":"QUIGNARD","prenom":"Laure","voix":273,"elu":false,"pct":51.51},{"nuance":"UXD","nom":"CHAIX","prenom":"Bernard","voix":257,"elu":true,"pct":48.49}],"participation":61.71,"libelle":"St Barthelemy","adresse":"17 Avenue Francois Bottau, 06100 Nice","lat":43.715418,"lon":7.254087},{"bureau":"0520","inscrits":938,"votants":568,"abstentions":370,"exprimes":527,"blancs":35,"nuls":6,"results":[{"nuance":"UXD","nom":"CHAIX","prenom":"Bernard","voix":266,"elu":true,"pct":50.47},{"nuance":"UG","nom":"QUIGNARD","prenom":"Laure","voix":261,"elu":false,"pct":49.53}],"participation":60.55,"libelle":"Sevigne","adresse":"17 Avenue Francois Bottau, 06100 Nice","lat":43.715418,"lon":7.254087},{"bureau":"0521","inscrits":972,"votants":564,"abstentions":408,"exprimes":526,"blancs":31,"nuls":7,"results":[{"nuance":"UG","nom":"QUIGNARD","prenom":"Laure","voix":298,"elu":false,"pct":56.65},{"nuance":"UXD","nom":"CHAIX","prenom":"Bernard","voix":228,"elu":true,"pct":43.35}],"participation":58.02,"libelle":"Parmentier","adresse":"17 Avenue Francois Bottau, 06100 Nice","lat":43.715418,"lon":7.254087},{"bureau":"0522","inscrits":959,"votants":622,"abstentions":337,"exprimes":586,"blancs":29,"nuls":7,"results":[{"nuance":"UG","nom":"QUIGNARD","prenom":"Laure","voix":302,"elu":false,"pct":51.54},{"nuance":"UXD","nom":"CHAIX","prenom":"Bernard","voix":284,"elu":true,"pct":48.46}],"participation":64.86,"libelle":"Michelet","adresse":"17 Avenue Francois Bottau, 06100 Nice","lat":43.715418,"lon":7.254087},{"bureau":"0523","inscrits":947,"votants":595,"abstentions":352,"exprimes":549,"blancs":38,"nuls":8,"results":[{"nuance":"UXD","nom":"CHAIX","prenom":"Bernard","voix":282,"elu":true,"pct":51.37},{"nuance":"UG","nom":"QUIGNARD","prenom":"Laure","voix":267,"elu":false,"pct":48.63}],"participation":62.83,"libelle":"Cyrille Besset","adresse":"17 Avenue Francois Bottau, 06100 Nice","lat":43.715418,"lon":7.254087},{"bureau":"0524","inscrits":1014,"votants":653,"abstentions":361,"exprimes":622,"blancs":27,"nuls":4,"results":[{"nuance":"UXD","nom":"CHAIX","prenom":"Bernard","voix":368,"elu":true,"pct":59.16},{"nuance":"UG","nom":"QUIGNARD","prenom":"Laure","voix":254,"elu":false,"pct":40.84}],"participation":64.4,"libelle":"Patrimoine","adresse":"64 Boulevard De Cessole, 06100 Nice","lat":43.715638,"lon":7.253822},{"bureau":"0525","inscrits":997,"votants":634,"abstentions":363,"exprimes":593,"blancs":32,"nuls":9,"results":[{"nuance":"UXD","nom":"CHAIX","prenom":"Bernard","voix":312,"elu":true,"pct":52.61},{"nuance":"UG","nom":"QUIGNARD","prenom":"Laure","voix":281,"elu":false,"pct":47.39}],"participation":63.59,"libelle":"Stephen Liegeard","adresse":"0 Avenue Jean Sebastien Bares, 06100 Nice","lat":43.724104,"lon":7.251948},{"bureau":"0526","inscrits":981,"votants":613,"abstentions":368,"exprimes":569,"blancs":33,"nuls":11,"results":[{"nuance":"UXD","nom":"CHAIX","prenom":"Bernard","voix":339,"elu":true,"pct":59.58},{"nuance":"UG","nom":"QUIGNARD","prenom":"Laure","voix":230,"elu":false,"pct":40.42}],"participation":62.49,"libelle":"Cauvin","adresse":"0 Avenue Jean Sebastien Bares, 06100 Nice","lat":43.724104,"lon":7.251948},{"bureau":"0527","inscrits":935,"votants":623,"abstentions":312,"exprimes":578,"blancs":36,"nuls":9,"results":[{"nuance":"UXD","nom":"CHAIX","prenom":"Bernard","voix":340,"elu":true,"pct":58.82},{"nuance":"UG","nom":"QUIGNARD","prenom":"Laure","voix":238,"elu":false,"pct":41.18}],"participation":66.63,"libelle":"Pagnol","adresse":"62 Boulevard Gorbella, 06100 Nice","lat":43.723533,"lon":7.25624},{"bureau":"0528","inscrits":871,"votants":533,"abstentions":338,"exprimes":502,"blancs":29,"nuls":2,"results":[{"nuance":"UXD","nom":"CHAIX","prenom":"Bernard","voix":268,"elu":true,"pct":53.39},{"nuance":"UG","nom":"QUIGNARD","prenom":"Laure","voix":234,"elu":false,"pct":46.61}],"participation":61.19,"libelle":"De Foucauld","adresse":"62 Boulevard Gorbella, 06100 Nice","lat":43.723533,"lon":7.25624},{"bureau":"0529","inscrits":828,"votants":528,"abstentions":300,"exprimes":489,"blancs":20,"nuls":19,"results":[{"nuance":"UXD","nom":"CHAIX","prenom":"Bernard","voix":245,"elu":true,"pct":50.1},{"nuance":"UG","nom":"QUIGNARD","prenom":"Laure","voix":244,"elu":false,"pct":49.9}],"participation":63.77,"libelle":"Fontaine Du Temple","adresse":"62 Boulevard Gorbella, 06100 Nice","lat":43.723533,"lon":7.25624},{"bureau":"0530","inscrits":984,"votants":641,"abstentions":343,"exprimes":607,"blancs":28,"nuls":6,"results":[{"nuance":"UXD","nom":"CHAIX","prenom":"Bernard","voix":341,"elu":true,"pct":56.18},{"nuance":"UG","nom":"QUIGNARD","prenom":"Laure","voix":266,"elu":false,"pct":43.82}],"participation":65.14,"libelle":"Gorbella","adresse":"62 Boulevard Gorbella, 06100 Nice","lat":43.723533,"lon":7.25624},{"bureau":"0531","inscrits":826,"votants":513,"abstentions":313,"exprimes":476,"blancs":28,"nuls":9,"results":[{"nuance":"UXD","nom":"CHAIX","prenom":"Bernard","voix":267,"elu":true,"pct":56.09},{"nuance":"UG","nom":"QUIGNARD","prenom":"Laure","voix":209,"elu":false,"pct":43.91}],"participation":62.11,"libelle":"Vismara","adresse":"22 Vieux Chemin De Gairaut, 06100 Nice","lat":43.726019,"lon":7.262376},{"bureau":"0532","inscrits":965,"votants":599,"abstentions":366,"exprimes":548,"blancs":50,"nuls":1,"results":[{"nuance":"UXD","nom":"CHAIX","prenom":"Bernard","voix":331,"elu":true,"pct":60.4},{"nuance":"UG","nom":"QUIGNARD","prenom":"Laure","voix":217,"elu":false,"pct":39.6}],"participation":62.07,"libelle":"La Fontaine","adresse":"20 Vieux Chemin De Gairaut, 06100 Nice","lat":43.725503,"lon":7.262661},{"bureau":"0533","inscrits":170,"votants":74,"abstentions":96,"exprimes":69,"blancs":2,"nuls":3,"results":[{"nuance":"UG","nom":"QUIGNARD","prenom":"Laure","voix":50,"elu":false,"pct":72.46},{"nuance":"UXD","nom":"CHAIX","prenom":"Bernard","voix":19,"elu":true,"pct":27.54}],"participation":43.53,"libelle":null,"adresse":null,"lat":null,"lon":null},{"bureau":"0601","inscrits":921,"votants":579,"abstentions":342,"exprimes":563,"blancs":11,"nuls":5,"results":[{"nuance":"UXD","nom":"CIOTTI","prenom":"Eric","voix":234,"elu":true,"pct":41.56},{"nuance":"ENS","nom":"MONETTI","prenom":"Graig","voix":166,"elu":false,"pct":29.48},{"nuance":"UG","nom":"SALERNO","prenom":"Olivier","voix":163,"elu":false,"pct":28.95}],"participation":62.87,"libelle":"Felix Faure","adresse":"2 Avenue Felix Faure, 06000 Nice","lat":43.699075,"lon":7.275986},{"bureau":"0602","inscrits":985,"votants":660,"abstentions":325,"exprimes":650,"blancs":7,"nuls":3,"results":[{"nuance":"UXD","nom":"CIOTTI","prenom":"Eric","voix":249,"elu":true,"pct":38.31},{"nuance":"ENS","nom":"MONETTI","prenom":"Graig","voix":215,"elu":false,"pct":33.08},{"nuance":"UG","nom":"SALERNO","prenom":"Olivier","voix":186,"elu":false,"pct":28.62}],"participation":67.01,"libelle":"Lycee","adresse":"2 Avenue Felix Faure, 06300 Nice","lat":43.699075,"lon":7.275986},{"bureau":"0603","inscrits":863,"votants":557,"abstentions":306,"exprimes":536,"blancs":19,"nuls":2,"results":[{"nuance":"UXD","nom":"CIOTTI","prenom":"Eric","voix":202,"elu":true,"pct":37.69},{"nuance":"ENS","nom":"MONETTI","prenom":"Graig","voix":184,"elu":false,"pct":34.33},{"nuance":"UG","nom":"SALERNO","prenom":"Olivier","voix":150,"elu":false,"pct":27.99}],"participation":64.54,"libelle":"Gioffredo","adresse":"2 Avenue Felix Faure, 06000 Nice","lat":43.699075,"lon":7.275986},{"bureau":"0604","inscrits":941,"votants":601,"abstentions":340,"exprimes":584,"blancs":13,"nuls":4,"results":[{"nuance":"UXD","nom":"CIOTTI","prenom":"Eric","voix":258,"elu":true,"pct":44.18},{"nuance":"ENS","nom":"MONETTI","prenom":"Graig","voix":177,"elu":false,"pct":30.31},{"nuance":"UG","nom":"SALERNO","prenom":"Olivier","voix":149,"elu":false,"pct":25.51}],"participation":63.87,"libelle":"Dubouchage","adresse":"8 Rue Pierre Devoluy, 06000 Nice","lat":43.702836,"lon":7.273855},{"bureau":"0605","inscrits":976,"votants":632,"abstentions":344,"exprimes":619,"blancs":6,"nuls":7,"results":[{"nuance":"UXD","nom":"CIOTTI","prenom":"Eric","voix":261,"elu":true,"pct":42.16},{"nuance":"UG","nom":"SALERNO","prenom":"Olivier","voix":204,"elu":false,"pct":32.96},{"nuance":"ENS","nom":"MONETTI","prenom":"Graig","voix":154,"elu":false,"pct":24.88}],"participation":64.75,"libelle":"Brea","adresse":"8 Rue Pierre Devoluy, 06000 Nice","lat":43.702836,"lon":7.273855},{"bureau":"0606","inscrits":969,"votants":652,"abstentions":317,"exprimes":634,"blancs":11,"nuls":7,"results":[{"nuance":"UXD","nom":"CIOTTI","prenom":"Eric","voix":257,"elu":true,"pct":40.54},{"nuance":"ENS","nom":"MONETTI","prenom":"Graig","voix":194,"elu":false,"pct":30.6},{"nuance":"UG","nom":"SALERNO","prenom":"Olivier","voix":183,"elu":false,"pct":28.86}],"participation":67.29,"libelle":"Carabacel","adresse":"8 Rue Pierre Devoluy, 06000 Nice","lat":43.702836,"lon":7.273855},{"bureau":"0607","inscrits":857,"votants":607,"abstentions":250,"exprimes":594,"blancs":6,"nuls":7,"results":[{"nuance":"UXD","nom":"CIOTTI","prenom":"Eric","voix":270,"elu":true,"pct":45.45},{"nuance":"ENS","nom":"MONETTI","prenom":"Graig","voix":184,"elu":false,"pct":30.98},{"nuance":"UG","nom":"SALERNO","prenom":"Olivier","voix":140,"elu":false,"pct":23.57}],"participation":70.83,"libelle":"Les Glycines","adresse":"3 Boulevard Dubouchage, 06000 Nice","lat":43.703702,"lon":7.273395},{"bureau":"0608","inscrits":878,"votants":593,"abstentions":285,"exprimes":585,"blancs":7,"nuls":1,"results":[{"nuance":"UXD","nom":"CIOTTI","prenom":"Eric","voix":208,"elu":true,"pct":35.56},{"nuance":"UG","nom":"SALERNO","prenom":"Olivier","voix":206,"elu":false,"pct":35.21},{"nuance":"ENS","nom":"MONETTI","prenom":"Graig","voix":171,"elu":false,"pct":29.23}],"participation":67.54,"libelle":"Desambrois","adresse":"0 Passage Meynell, 06000 Nice","lat":43.703306,"lon":7.270869},{"bureau":"0609","inscrits":848,"votants":548,"abstentions":300,"exprimes":536,"blancs":9,"nuls":3,"results":[{"nuance":"UXD","nom":"CIOTTI","prenom":"Eric","voix":201,"elu":true,"pct":37.5},{"nuance":"UG","nom":"SALERNO","prenom":"Olivier","voix":190,"elu":false,"pct":35.45},{"nuance":"ENS","nom":"MONETTI","prenom":"Graig","voix":145,"elu":false,"pct":27.05}],"participation":64.62,"libelle":"Lamartine","adresse":"0 Passage Meynell, 06000 Nice","lat":43.703306,"lon":7.270869},{"bureau":"0610","inscrits":858,"votants":525,"abstentions":333,"exprimes":512,"blancs":11,"nuls":2,"results":[{"nuance":"UG","nom":"SALERNO","prenom":"Olivier","voix":239,"elu":false,"pct":46.68},{"nuance":"UXD","nom":"CIOTTI","prenom":"Eric","voix":189,"elu":true,"pct":36.91},{"nuance":"ENS","nom":"MONETTI","prenom":"Graig","voix":84,"elu":false,"pct":16.41}],"participation":61.19,"libelle":"Raimbaldi","adresse":"0 Passage Meynell, 06000 Nice","lat":43.703306,"lon":7.270869},{"bureau":"0611","inscrits":1068,"votants":733,"abstentions":335,"exprimes":720,"blancs":9,"nuls":4,"results":[{"nuance":"UXD","nom":"CIOTTI","prenom":"Eric","voix":285,"elu":true,"pct":39.58},{"nuance":"ENS","nom":"MONETTI","prenom":"Graig","voix":242,"elu":false,"pct":33.61},{"nuance":"UG","nom":"SALERNO","prenom":"Olivier","voix":193,"elu":false,"pct":26.81}],"participation":68.63,"libelle":"Roland Garros","adresse":"10 Boulevard De Cimiez, 06000 Nice","lat":43.707926,"lon":7.27077},{"bureau":"0612","inscrits":992,"votants":598,"abstentions":394,"exprimes":584,"blancs":10,"nuls":4,"results":[{"nuance":"UXD","nom":"CIOTTI","prenom":"Eric","voix":245,"elu":true,"pct":41.95},{"nuance":"UG","nom":"SALERNO","prenom":"Olivier","voix":215,"elu":false,"pct":36.82},{"nuance":"ENS","nom":"MONETTI","prenom":"Graig","voix":124,"elu":false,"pct":21.23}],"participation":60.28,"libelle":"Pauliani","adresse":"3 Rue Jeanne Jugan, 06000 Nice","lat":43.71083,"lon":7.281121},{"bureau":"0613","inscrits":1042,"votants":636,"abstentions":406,"exprimes":616,"blancs":16,"nuls":4,"results":[{"nuance":"UXD","nom":"CIOTTI","prenom":"Eric","voix":310,"elu":true,"pct":50.32},{"nuance":"UG","nom":"SALERNO","prenom":"Olivier","voix":188,"elu":false,"pct":30.52},{"nuance":"ENS","nom":"MONETTI","prenom":"Graig","voix":118,"elu":false,"pct":19.16}],"participation":61.04,"libelle":"Gallieni","adresse":"3 Rue Jeanne Jugan, 06000 Nice","lat":43.71083,"lon":7.281121},{"bureau":"0614","inscrits":835,"votants":570,"abstentions":265,"exprimes":523,"blancs":40,"nuls":7,"results":[{"nuance":"UXD","nom":"CHAIX","prenom":"Bernard","voix":311,"elu":true,"pct":59.46},{"nuance":"UG","nom":"QUIGNARD","prenom":"Laure","voix":212,"elu":false,"pct":40.54}],"participation":68.26,"libelle":"Nadaud","adresse":"89 Avenue George V, 06000 Nice","lat":43.713552,"lon":7.269633},{"bureau":"0615","inscrits":719,"votants":522,"abstentions":197,"exprimes":480,"blancs":37,"nuls":5,"results":[{"nuance":"UXD","nom":"CHAIX","prenom":"Bernard","voix":290,"elu":true,"pct":60.42},{"nuance":"UG","nom":"QUIGNARD","prenom":"Laure","voix":190,"elu":false,"pct":39.58}],"participation":72.6,"libelle":"D Essling","adresse":"89 Avenue George V, 06000 Nice","lat":43.713552,"lon":7.269633},{"bureau":"0616","inscrits":900,"votants":581,"abstentions":319,"exprimes":539,"blancs":37,"nuls":5,"results":[{"nuance":"UXD","nom":"CHAIX","prenom":"Bernard","voix":286,"elu":true,"pct":53.06},{"nuance":"UG","nom":"QUIGNARD","prenom":"Laure","voix":253,"elu":false,"pct":46.94}],"participation":64.56,"libelle":"Regina","adresse":"0 Avenue General Estienne, 06000 Nice","lat":43.715709,"lon":7.275747},{"bureau":"0617","inscrits":958,"votants":658,"abstentions":300,"exprimes":582,"blancs":69,"nuls":7,"results":[{"nuance":"UXD","nom":"CHAIX","prenom":"Bernard","voix":329,"elu":true,"pct":56.53},{"nuance":"UG","nom":"QUIGNARD","prenom":"Laure","voix":253,"elu":false,"pct":43.47}],"participation":68.68,"libelle":"Salonina","adresse":"0 Avenue General Estienne, 06000 Nice","lat":43.715709,"lon":7.275747},{"bureau":"0618","inscrits":816,"votants":548,"abstentions":268,"exprimes":491,"blancs":46,"nuls":11,"results":[{"nuance":"UXD","nom":"CHAIX","prenom":"Bernard","voix":289,"elu":true,"pct":58.86},{"nuance":"UG","nom":"QUIGNARD","prenom":"Laure","voix":202,"elu":false,"pct":41.14}],"participation":67.16,"libelle":"Les Arenes","adresse":"0 Avenue General Estienne, 06000 Nice","lat":43.715709,"lon":7.275747},{"bureau":"0619","inscrits":618,"votants":443,"abstentions":175,"exprimes":402,"blancs":31,"nuls":10,"results":[{"nuance":"UXD","nom":"CHAIX","prenom":"Bernard","voix":233,"elu":true,"pct":57.96},{"nuance":"UG","nom":"QUIGNARD","prenom":"Laure","voix":169,"elu":false,"pct":42.04}],"participation":71.68,"libelle":"Flirey","adresse":"0 Avenue Seilern, 06000 Nice","lat":43.722833,"lon":7.271912},{"bureau":"0620","inscrits":795,"votants":534,"abstentions":261,"exprimes":485,"blancs":40,"nuls":9,"results":[{"nuance":"UXD","nom":"CHAIX","prenom":"Bernard","voix":290,"elu":true,"pct":59.79},{"nuance":"UG","nom":"QUIGNARD","prenom":"Laure","voix":195,"elu":false,"pct":40.21}],"participation":67.17,"libelle":"Cimiez","adresse":"12 Rue Thyde Monnier, 06000 Nice","lat":43.726297,"lon":7.272213},{"bureau":"0621","inscrits":822,"votants":548,"abstentions":274,"exprimes":513,"blancs":30,"nuls":5,"results":[{"nuance":"UXD","nom":"CHAIX","prenom":"Bernard","voix":276,"elu":true,"pct":53.8},{"nuance":"UG","nom":"QUIGNARD","prenom":"Laure","voix":237,"elu":false,"pct":46.2}],"participation":66.67,"libelle":"Marne","adresse":"12 Rue Thyde Monnier, 06000 Nice","lat":43.726297,"lon":7.272213},{"bureau":"0622","inscrits":865,"votants":595,"abstentions":270,"exprimes":548,"blancs":40,"nuls":7,"results":[{"nuance":"UXD","nom":"CHAIX","prenom":"Bernard","voix":347,"elu":true,"pct":63.32},{"nuance":"UG","nom":"QUIGNARD","prenom":"Laure","voix":201,"elu":false,"pct":36.68}],"participation":68.79,"libelle":"Rimiez","adresse":"53 Avenue Cap De Croix, 06100 Nice","lat":43.730821,"lon":7.275757},{"bureau":"0623","inscrits":854,"votants":589,"abstentions":265,"exprimes":526,"blancs":52,"nuls":11,"results":[{"nuance":"UXD","nom":"CHAIX","prenom":"Bernard","voix":313,"elu":true,"pct":59.51},{"nuance":"UG","nom":"QUIGNARD","prenom":"Laure","voix":213,"elu":false,"pct":40.49}],"participation":68.97,"libelle":"Scuderi","adresse":"53 Avenue Cap De Croix, 06100 Nice","lat":43.730821,"lon":7.275757},{"bureau":"0624","inscrits":792,"votants":542,"abstentions":250,"exprimes":498,"blancs":42,"nuls":2,"results":[{"nuance":"UXD","nom":"CHAIX","prenom":"Bernard","voix":318,"elu":true,"pct":63.86},{"nuance":"UG","nom":"QUIGNARD","prenom":"Laure","voix":180,"elu":false,"pct":36.14}],"participation":68.43,"libelle":"Cap De Croix","adresse":"53 Avenue Cap De Croix, 06100 Nice","lat":43.730821,"lon":7.275757},{"bureau":"0625","inscrits":879,"votants":526,"abstentions":353,"exprimes":498,"blancs":24,"nuls":4,"results":[{"nuance":"UG","nom":"QUIGNARD","prenom":"Laure","voix":255,"elu":false,"pct":51.2},{"nuance":"UXD","nom":"CHAIX","prenom":"Bernard","voix":243,"elu":true,"pct":48.8}],"participation":59.84,"libelle":"Valrose","adresse":"60 Avenue Alfred Borriglione, 06100 Nice","lat":43.71665,"lon":7.261517},{"bureau":"0626","inscrits":643,"votants":467,"abstentions":176,"exprimes":433,"blancs":28,"nuls":6,"results":[{"nuance":"UXD","nom":"CHAIX","prenom":"Bernard","voix":309,"elu":true,"pct":71.36},{"nuance":"UG","nom":"QUIGNARD","prenom":"Laure","voix":124,"elu":false,"pct":28.64}],"participation":72.63,"libelle":"Gairaut","adresse":"190 Avenue De Gairaut, 06100 Nice","lat":43.736704,"lon":7.263094},{"bureau":"0627","inscrits":724,"votants":507,"abstentions":217,"exprimes":456,"blancs":43,"nuls":8,"results":[{"nuance":"UXD","nom":"CHAIX","prenom":"Bernard","voix":291,"elu":true,"pct":63.82},{"nuance":"UG","nom":"QUIGNARD","prenom":"Laure","voix":165,"elu":false,"pct":36.18}],"participation":70.03,"libelle":"Mimosas","adresse":"22 Vieux Chemin De Gairaut, 06100 Nice","lat":43.726019,"lon":7.262376},{"bureau":"0628","inscrits":509,"votants":372,"abstentions":137,"exprimes":329,"blancs":36,"nuls":7,"results":[{"nuance":"UXD","nom":"CHAIX","prenom":"Bernard","voix":233,"elu":true,"pct":70.82},{"nuance":"UG","nom":"QUIGNARD","prenom":"Laure","voix":96,"elu":false,"pct":29.18}],"participation":73.08,"libelle":"La Serena","adresse":"190 Avenue De Gairaut, 06100 Nice","lat":43.736704,"lon":7.263094},{"bureau":"0629","inscrits":985,"votants":639,"abstentions":346,"exprimes":596,"blancs":34,"nuls":9,"results":[{"nuance":"UXD","nom":"CHAIX","prenom":"Bernard","voix":383,"elu":true,"pct":64.26},{"nuance":"UG","nom":"QUIGNARD","prenom":"Laure","voix":213,"elu":false,"pct":35.74}],"participation":64.87,"libelle":"Vallon Des Fleurs","adresse":"123 Avenue Henry Dunant, 06100 Nice","lat":43.730781,"lon":7.270438},{"bureau":"0630","inscrits":800,"votants":430,"abstentions":370,"exprimes":410,"blancs":12,"nuls":8,"results":[{"nuance":"UXD","nom":"CHAIX","prenom":"Bernard","voix":217,"elu":true,"pct":52.93},{"nuance":"UG","nom":"QUIGNARD","prenom":"Laure","voix":193,"elu":false,"pct":47.07}],"participation":53.75,"libelle":"Acacias","adresse":"123 Avenue Henry Dunant, 06100 Nice","lat":43.730781,"lon":7.270438},{"bureau":"0631","inscrits":515,"votants":333,"abstentions":182,"exprimes":311,"blancs":12,"nuls":10,"results":[{"nuance":"UG","nom":"QUIGNARD","prenom":"Laure","voix":179,"elu":false,"pct":57.56},{"nuance":"UXD","nom":"CHAIX","prenom":"Bernard","voix":132,"elu":true,"pct":42.44}],"participation":64.66,"libelle":"Olivetto","adresse":"78 Avenue Saint Lambert, 06100 Nice","lat":43.712294,"lon":7.26428},{"bureau":"0632","inscrits":919,"votants":556,"abstentions":363,"exprimes":547,"blancs":8,"nuls":1,"results":[{"nuance":"UG","nom":"SALERNO","prenom":"Olivier","voix":254,"elu":false,"pct":46.44},{"nuance":"UXD","nom":"CIOTTI","prenom":"Eric","voix":194,"elu":true,"pct":35.47},{"nuance":"ENS","nom":"MONETTI","prenom":"Graig","voix":99,"elu":false,"pct":18.1}],"participation":60.5,"libelle":"Guillaume Appolinaire","adresse":"0 Passage Meynell, 06000 Nice","lat":43.703306,"lon":7.270869},{"bureau":"0633","inscrits":824,"votants":586,"abstentions":238,"exprimes":525,"blancs":49,"nuls":12,"results":[{"nuance":"UXD","nom":"CHAIX","prenom":"Bernard","voix":316,"elu":true,"pct":60.19},{"nuance":"UG","nom":"QUIGNARD","prenom":"Laure","voix":209,"elu":false,"pct":39.81}],"participation":71.12,"libelle":"Georges V","adresse":"89 Avenue George V, 06000 Nice","lat":43.713552,"lon":7.269633},{"bureau":"0634","inscrits":812,"votants":570,"abstentions":242,"exprimes":518,"blancs":34,"nuls":18,"results":[{"nuance":"UXD","nom":"CHAIX","prenom":"Bernard","voix":327,"elu":true,"pct":63.13},{"nuance":"UG","nom":"QUIGNARD","prenom":"Laure","voix":191,"elu":false,"pct":36.87}],"participation":70.2,"libelle":"Mireio","adresse":"53 Avenue Cap De Croix, 06100 Nice","lat":43.730821,"lon":7.275757},{"bureau":"0635","inscrits":566,"votants":391,"abstentions":175,"exprimes":374,"blancs":15,"nuls":2,"results":[{"nuance":"UG","nom":"QUIGNARD","prenom":"Laure","voix":232,"elu":false,"pct":62.03},{"nuance":"UXD","nom":"CHAIX","prenom":"Bernard","voix":142,"elu":true,"pct":37.97}],"participation":69.08,"libelle":"Comboul","adresse":"78 Avenue Saint Lambert, 06100 Nice","lat":43.712294,"lon":7.26428},{"bureau":"0701","inscrits":889,"votants":547,"abstentions":342,"exprimes":532,"blancs":9,"nuls":6,"results":[{"nuance":"UG","nom":"QUIGNARD","prenom":"Laure","voix":279,"elu":false,"pct":52.44},{"nuance":"UXD","nom":"CHAIX","prenom":"Bernard","voix":253,"elu":true,"pct":47.56}],"participation":61.53,"libelle":"Saint Pons","adresse":"7 Rue General Tordo, 06000 Nice","lat":43.719209,"lon":7.282287},{"bureau":"0702","inscrits":922,"votants":539,"abstentions":383,"exprimes":518,"blancs":11,"nuls":10,"results":[{"nuance":"UXD","nom":"CHAIX","prenom":"Bernard","voix":263,"elu":true,"pct":50.77},{"nuance":"UG","nom":"QUIGNARD","prenom":"Laure","voix":255,"elu":false,"pct":49.23}],"participation":58.46,"libelle":"Pasteur","adresse":"15 Rue Professeur Delvalle, 06000 Nice","lat":43.721719,"lon":7.283767},{"bureau":"0703","inscrits":877,"votants":481,"abstentions":396,"exprimes":466,"blancs":11,"nuls":4,"results":[{"nuance":"UG","nom":"QUIGNARD","prenom":"Laure","voix":255,"elu":false,"pct":54.72},{"nuance":"UXD","nom":"CHAIX","prenom":"Bernard","voix":211,"elu":true,"pct":45.28}],"participation":54.85,"libelle":"Antonia Augusta","adresse":"15 Rue Professeur Delvalle, 06000 Nice","lat":43.721719,"lon":7.283767},{"bureau":"0704","inscrits":933,"votants":488,"abstentions":445,"exprimes":462,"blancs":23,"nuls":3,"results":[{"nuance":"UG","nom":"QUIGNARD","prenom":"Laure","voix":267,"elu":false,"pct":57.79},{"nuance":"UXD","nom":"CHAIX","prenom":"Bernard","voix":195,"elu":true,"pct":42.21}],"participation":52.3,"libelle":"Francois Carlo","adresse":"15 Rue Professeur Delvalle, 06000 Nice","lat":43.721719,"lon":7.283767},{"bureau":"0705","inscrits":757,"votants":532,"abstentions":225,"exprimes":488,"blancs":37,"nuls":7,"results":[{"nuance":"UXD","nom":"CHAIX","prenom":"Bernard","voix":272,"elu":true,"pct":55.74},{"nuance":"UG","nom":"QUIGNARD","prenom":"Laure","voix":216,"elu":false,"pct":44.26}],"participation":70.28,"libelle":"Bellanda","adresse":"2 Avenue Monte Croce, 06000 Nice","lat":43.718537,"lon":7.275343},{"bureau":"0706","inscrits":872,"votants":452,"abstentions":420,"exprimes":436,"blancs":13,"nuls":3,"results":[{"nuance":"UG","nom":"SALERNO","prenom":"Olivier","voix":269,"elu":false,"pct":61.7},{"nuance":"UXD","nom":"CIOTTI","prenom":"Eric","voix":126,"elu":true,"pct":28.9},{"nuance":"ENS","nom":"MONETTI","prenom":"Graig","voix":41,"elu":false,"pct":9.4}],"participation":51.83,"libelle":"Bon Voyage","adresse":"212 Route De Turin, 06300 Nice","lat":43.725876,"lon":7.287429},{"bureau":"0707","inscrits":876,"votants":392,"abstentions":484,"exprimes":382,"blancs":7,"nuls":3,"results":[{"nuance":"UG","nom":"SALERNO","prenom":"Olivier","voix":276,"elu":false,"pct":72.25},{"nuance":"UXD","nom":"CIOTTI","prenom":"Eric","voix":81,"elu":true,"pct":21.2},{"nuance":"ENS","nom":"MONETTI","prenom":"Graig","voix":25,"elu":false,"pct":6.54}],"participation":44.75,"libelle":"Turin","adresse":"212 Route De Turin, 06300 Nice","lat":43.725876,"lon":7.287429},{"bureau":"0708","inscrits":1043,"votants":524,"abstentions":519,"exprimes":509,"blancs":11,"nuls":4,"results":[{"nuance":"UG","nom":"QUIGNARD","prenom":"Laure","voix":394,"elu":false,"pct":77.41},{"nuance":"UXD","nom":"CHAIX","prenom":"Bernard","voix":115,"elu":true,"pct":22.59}],"participation":50.24,"libelle":"Sainte Agathe","adresse":"3 Avenue General Olry, 06300 Nice","lat":43.73876,"lon":7.299838},{"bureau":"0709","inscrits":1016,"votants":464,"abstentions":552,"exprimes":454,"blancs":6,"nuls":4,"results":[{"nuance":"UG","nom":"QUIGNARD","prenom":"Laure","voix":359,"elu":false,"pct":79.07},{"nuance":"UXD","nom":"CHAIX","prenom":"Bernard","voix":95,"elu":true,"pct":20.93}],"participation":45.67,"libelle":"Amedee Vii","adresse":"3 Avenue General Olry, 06300 Nice","lat":43.73876,"lon":7.299838},{"bureau":"0710","inscrits":920,"votants":432,"abstentions":488,"exprimes":426,"blancs":5,"nuls":1,"results":[{"nuance":"UG","nom":"QUIGNARD","prenom":"Laure","voix":352,"elu":false,"pct":82.63},{"nuance":"UXD","nom":"CHAIX","prenom":"Bernard","voix":74,"elu":true,"pct":17.37}],"participation":46.96,"libelle":"Comte Vert","adresse":"3 Avenue General Olry, 06300 Nice","lat":43.73876,"lon":7.299838},{"bureau":"0711","inscrits":999,"votants":447,"abstentions":552,"exprimes":431,"blancs":10,"nuls":6,"results":[{"nuance":"UG","nom":"QUIGNARD","prenom":"Laure","voix":354,"elu":false,"pct":82.13},{"nuance":"UXD","nom":"CHAIX","prenom":"Bernard","voix":77,"elu":true,"pct":17.87}],"participation":44.74,"libelle":"Anatole De Monzie","adresse":"3 Rue Georges Picard, 06300 Nice","lat":43.739348,"lon":7.307245},{"bureau":"0712","inscrits":1068,"votants":517,"abstentions":551,"exprimes":509,"blancs":6,"nuls":2,"results":[{"nuance":"UG","nom":"QUIGNARD","prenom":"Laure","voix":460,"elu":false,"pct":90.37},{"nuance":"UXD","nom":"CHAIX","prenom":"Bernard","voix":49,"elu":true,"pct":9.63}],"participation":48.41,"libelle":"Piaget","adresse":"3 Rue Georges Picard, 06300 Nice","lat":43.739348,"lon":7.307245},{"bureau":"0713","inscrits":992,"votants":578,"abstentions":414,"exprimes":563,"blancs":10,"nuls":5,"results":[{"nuance":"UG","nom":"QUIGNARD","prenom":"Laure","voix":371,"elu":false,"pct":65.9},{"nuance":"UXD","nom":"CHAIX","prenom":"Bernard","voix":192,"elu":true,"pct":34.1}],"participation":58.27,"libelle":"General Saramito","adresse":"3 Rue Georges Picard, 06300 Nice","lat":43.739348,"lon":7.307245},{"bureau":"0714","inscrits":464,"votants":316,"abstentions":148,"exprimes":287,"blancs":23,"nuls":6,"results":[{"nuance":"UXD","nom":"CHAIX","prenom":"Bernard","voix":160,"elu":true,"pct":55.75},{"nuance":"UG","nom":"QUIGNARD","prenom":"Laure","voix":127,"elu":false,"pct":44.25}],"participation":68.1,"libelle":"Colombo","adresse":"2 Avenue Monte Croce, 06000 Nice","lat":43.718537,"lon":7.275343},{"bureau":"0801","inscrits":764,"votants":494,"abstentions":270,"exprimes":473,"blancs":7,"nuls":14,"results":[{"nuance":"UXD","nom":"CIOTTI","prenom":"Eric","voix":236,"elu":true,"pct":49.89},{"nuance":"UG","nom":"SALERNO","prenom":"Olivier","voix":139,"elu":false,"pct":29.39},{"nuance":"ENS","nom":"MONETTI","prenom":"Graig","voix":98,"elu":false,"pct":20.72}],"participation":64.66,"libelle":"Beaumont","adresse":"2 Rue Louis Garneray, 06300 Nice","lat":43.706253,"lon":7.292231},{"bureau":"0802","inscrits":1045,"votants":661,"abstentions":384,"exprimes":648,"blancs":9,"nuls":4,"results":[{"nuance":"UXD","nom":"CIOTTI","prenom":"Eric","voix":334,"elu":true,"pct":51.54},{"nuance":"UG","nom":"SALERNO","prenom":"Olivier","voix":203,"elu":false,"pct":31.33},{"nuance":"ENS","nom":"MONETTI","prenom":"Graig","voix":111,"elu":false,"pct":17.13}],"participation":63.25,"libelle":"Blanqui","adresse":"47 Rue Auguste Gal, 06300 Nice","lat":43.70637,"lon":7.287142},{"bureau":"0803","inscrits":1031,"votants":638,"abstentions":393,"exprimes":629,"blancs":3,"nuls":6,"results":[{"nuance":"UXD","nom":"CIOTTI","prenom":"Eric","voix":288,"elu":true,"pct":45.79},{"nuance":"UG","nom":"SALERNO","prenom":"Olivier","voix":224,"elu":false,"pct":35.61},{"nuance":"ENS","nom":"MONETTI","prenom":"Graig","voix":117,"elu":false,"pct":18.6}],"participation":61.88,"libelle":"Blancon","adresse":"47 Rue Auguste Gal, 06300 Nice","lat":43.70637,"lon":7.287142},{"bureau":"0804","inscrits":712,"votants":394,"abstentions":318,"exprimes":374,"blancs":20,"nuls":0,"results":[{"nuance":"UG","nom":"QUIGNARD","prenom":"Laure","voix":203,"elu":false,"pct":54.28},{"nuance":"UXD","nom":"CHAIX","prenom":"Bernard","voix":171,"elu":true,"pct":45.72}],"participation":55.34,"libelle":"Jean Mace","adresse":"1 Rue General Tordo, 06000 Nice","lat":43.719076,"lon":7.282574},{"bureau":"0805","inscrits":932,"votants":605,"abstentions":327,"exprimes":583,"blancs":16,"nuls":6,"results":[{"nuance":"UXD","nom":"CIOTTI","prenom":"Eric","voix":304,"elu":true,"pct":52.14},{"nuance":"UG","nom":"SALERNO","prenom":"Olivier","voix":150,"elu":false,"pct":25.73},{"nuance":"ENS","nom":"MONETTI","prenom":"Graig","voix":129,"elu":false,"pct":22.13}],"participation":64.91,"libelle":"Bischoffsheim","adresse":"2 Rue Louis Garneray, 06300 Nice","lat":43.706253,"lon":7.292231},{"bureau":"0806","inscrits":874,"votants":516,"abstentions":358,"exprimes":504,"blancs":8,"nuls":4,"results":[{"nuance":"UXD","nom":"CIOTTI","prenom":"Eric","voix":229,"elu":true,"pct":45.44},{"nuance":"UG","nom":"SALERNO","prenom":"Olivier","voix":202,"elu":false,"pct":40.08},{"nuance":"ENS","nom":"MONETTI","prenom":"Graig","voix":73,"elu":false,"pct":14.48}],"participation":59.04,"libelle":"Armee Des Alpes","adresse":"2 Rue Louis Garneray, 06300 Nice","lat":43.706253,"lon":7.292231},{"bureau":"0807","inscrits":747,"votants":467,"abstentions":280,"exprimes":454,"blancs":9,"nuls":4,"results":[{"nuance":"UXD","nom":"CIOTTI","prenom":"Eric","voix":243,"elu":true,"pct":53.52},{"nuance":"UG","nom":"SALERNO","prenom":"Olivier","voix":141,"elu":false,"pct":31.06},{"nuance":"ENS","nom":"MONETTI","prenom":"Graig","voix":70,"elu":false,"pct":15.42}],"participation":62.52,"libelle":"Sorgentino","adresse":"2 Rue Louis Garneray, 06300 Nice","lat":43.706253,"lon":7.292231},{"bureau":"0808","inscrits":793,"votants":518,"abstentions":275,"exprimes":502,"blancs":10,"nuls":6,"results":[{"nuance":"UXD","nom":"CIOTTI","prenom":"Eric","voix":230,"elu":true,"pct":45.82},{"nuance":"UG","nom":"SALERNO","prenom":"Olivier","voix":193,"elu":false,"pct":38.45},{"nuance":"ENS","nom":"MONETTI","prenom":"Graig","voix":79,"elu":false,"pct":15.74}],"participation":65.32,"libelle":"Diables Bleus","adresse":"6 Rue Louis Garneray, 06300 Nice","lat":43.706201,"lon":7.292858},{"bureau":"0809","inscrits":898,"votants":621,"abstentions":277,"exprimes":607,"blancs":10,"nuls":4,"results":[{"nuance":"UXD","nom":"CIOTTI","prenom":"Eric","voix":341,"elu":true,"pct":56.18},{"nuance":"UG","nom":"SALERNO","prenom":"Olivier","voix":159,"elu":false,"pct":26.19},{"nuance":"ENS","nom":"MONETTI","prenom":"Graig","voix":107,"elu":false,"pct":17.63}],"participation":69.15,"libelle":"Jean Xxiii","adresse":"2 Rue Fornero Menei, 06300 Nice","lat":43.713262,"lon":7.29101},{"bureau":"0810","inscrits":810,"votants":540,"abstentions":270,"exprimes":529,"blancs":5,"nuls":6,"results":[{"nuance":"UXD","nom":"CIOTTI","prenom":"Eric","voix":291,"elu":true,"pct":55.01},{"nuance":"UG","nom":"SALERNO","prenom":"Olivier","voix":159,"elu":false,"pct":30.06},{"nuance":"ENS","nom":"MONETTI","prenom":"Graig","voix":79,"elu":false,"pct":14.93}],"participation":66.67,"libelle":"Marechal Vauban","adresse":"2 Rue Fornero Menei, 06300 Nice","lat":43.713262,"lon":7.29101},{"bureau":"0811","inscrits":823,"votants":535,"abstentions":288,"exprimes":519,"blancs":12,"nuls":4,"results":[{"nuance":"UXD","nom":"CIOTTI","prenom":"Eric","voix":275,"elu":true,"pct":52.99},{"nuance":"UG","nom":"SALERNO","prenom":"Olivier","voix":189,"elu":false,"pct":36.42},{"nuance":"ENS","nom":"MONETTI","prenom":"Graig","voix":55,"elu":false,"pct":10.6}],"participation":65.01,"libelle":"Giono","adresse":"2 Rue Fornero Menei, 06300 Nice","lat":43.713262,"lon":7.29101},{"bureau":"0812","inscrits":803,"votants":544,"abstentions":259,"exprimes":537,"blancs":7,"nuls":0,"results":[{"nuance":"UXD","nom":"CIOTTI","prenom":"Eric","voix":374,"elu":true,"pct":69.65},{"nuance":"UG","nom":"SALERNO","prenom":"Olivier","voix":92,"elu":false,"pct":17.13},{"nuance":"ENS","nom":"MONETTI","prenom":"Graig","voix":71,"elu":false,"pct":13.22}],"participation":67.75,"libelle":"Acchiardi","adresse":"2 Rue Fornero Menei, 06300 Nice","lat":43.713262,"lon":7.29101},{"bureau":"0813","inscrits":1001,"votants":604,"abstentions":397,"exprimes":594,"blancs":8,"nuls":2,"results":[{"nuance":"UXD","nom":"CIOTTI","prenom":"Eric","voix":284,"elu":true,"pct":47.81},{"nuance":"UG","nom":"SALERNO","prenom":"Olivier","voix":220,"elu":false,"pct":37.04},{"nuance":"ENS","nom":"MONETTI","prenom":"Graig","voix":90,"elu":false,"pct":15.15}],"participation":60.34,"libelle":"Roussillon","adresse":"2 Rue Fornero Menei, 06300 Nice","lat":43.713262,"lon":7.29101},{"bureau":"0814","inscrits":824,"votants":474,"abstentions":350,"exprimes":456,"blancs":15,"nuls":3,"results":[{"nuance":"UXD","nom":"CIOTTI","prenom":"Eric","voix":224,"elu":true,"pct":49.12},{"nuance":"UG","nom":"SALERNO","prenom":"Olivier","voix":165,"elu":false,"pct":36.18},{"nuance":"ENS","nom":"MONETTI","prenom":"Graig","voix":67,"elu":false,"pct":14.69}],"participation":57.52,"libelle":"Fontan","adresse":"2 Rue Fornero Menei, 06300 Nice","lat":43.713262,"lon":7.29101},{"bureau":"0815","inscrits":964,"votants":661,"abstentions":303,"exprimes":644,"blancs":16,"nuls":1,"results":[{"nuance":"UXD","nom":"CIOTTI","prenom":"Eric","voix":348,"elu":true,"pct":54.04},{"nuance":"UG","nom":"SALERNO","prenom":"Olivier","voix":178,"elu":false,"pct":27.64},{"nuance":"ENS","nom":"MONETTI","prenom":"Graig","voix":118,"elu":false,"pct":18.32}],"participation":68.57,"libelle":"Fornero Menei","adresse":"2 Rue Fornero Menei, 06300 Nice","lat":43.713262,"lon":7.29101},{"bureau":"0816","inscrits":1006,"votants":530,"abstentions":476,"exprimes":513,"blancs":12,"nuls":5,"results":[{"nuance":"UXD","nom":"CIOTTI","prenom":"Eric","voix":228,"elu":true,"pct":44.44},{"nuance":"UG","nom":"SALERNO","prenom":"Olivier","voix":224,"elu":false,"pct":43.66},{"nuance":"ENS","nom":"MONETTI","prenom":"Graig","voix":61,"elu":false,"pct":11.89}],"participation":52.68,"libelle":"Saint Roch","adresse":"14 Rue Fornero Menei, 06300 Nice","lat":43.714891,"lon":7.291177},{"bureau":"0817","inscrits":968,"votants":618,"abstentions":350,"exprimes":600,"blancs":11,"nuls":7,"results":[{"nuance":"UXD","nom":"CIOTTI","prenom":"Eric","voix":314,"elu":true,"pct":52.33},{"nuance":"UG","nom":"SALERNO","prenom":"Olivier","voix":219,"elu":false,"pct":36.5},{"nuance":"ENS","nom":"MONETTI","prenom":"Graig","voix":67,"elu":false,"pct":11.17}],"participation":63.84,"libelle":"Leyrit","adresse":"14 Rue Fornero Menei, 06300 Nice","lat":43.714891,"lon":7.291177},{"bureau":"0818","inscrits":915,"votants":578,"abstentions":337,"exprimes":559,"blancs":14,"nuls":5,"results":[{"nuance":"UXD","nom":"CIOTTI","prenom":"Eric","voix":292,"elu":true,"pct":52.24},{"nuance":"UG","nom":"SALERNO","prenom":"Olivier","voix":200,"elu":false,"pct":35.78},{"nuance":"ENS","nom":"MONETTI","prenom":"Graig","voix":67,"elu":false,"pct":11.99}],"participation":63.17,"libelle":"Denis Semeria","adresse":"7 Rue Pie Francois Toesca, 06300 Nice","lat":43.717097,"lon":7.293643},{"bureau":"0819","inscrits":775,"votants":441,"abstentions":334,"exprimes":430,"blancs":10,"nuls":1,"results":[{"nuance":"UXD","nom":"CIOTTI","prenom":"Eric","voix":201,"elu":true,"pct":46.74},{"nuance":"UG","nom":"SALERNO","prenom":"Olivier","voix":175,"elu":false,"pct":40.7},{"nuance":"ENS","nom":"MONETTI","prenom":"Graig","voix":54,"elu":false,"pct":12.56}],"participation":56.9,"libelle":"Mont Gros","adresse":"7 Rue Pie Francois Toesca, 06300 Nice","lat":43.717097,"lon":7.293643},{"bureau":"0820","inscrits":1051,"votants":534,"abstentions":517,"exprimes":525,"blancs":5,"nuls":4,"results":[{"nuance":"UG","nom":"SALERNO","prenom":"Olivier","voix":236,"elu":false,"pct":44.95},{"nuance":"UXD","nom":"CIOTTI","prenom":"Eric","voix":221,"elu":true,"pct":42.1},{"nuance":"ENS","nom":"MONETTI","prenom":"Graig","voix":68,"elu":false,"pct":12.95}],"participation":50.81,"libelle":"Saint Charles","adresse":"4 Rue Joseph Miceu, 06300 Nice","lat":43.718057,"lon":7.295686},{"bureau":"0821","inscrits":1081,"votants":486,"abstentions":595,"exprimes":475,"blancs":7,"nuls":4,"results":[{"nuance":"UG","nom":"SALERNO","prenom":"Olivier","voix":289,"elu":false,"pct":60.84},{"nuance":"UXD","nom":"CIOTTI","prenom":"Eric","voix":159,"elu":true,"pct":33.47},{"nuance":"ENS","nom":"MONETTI","prenom":"Graig","voix":27,"elu":false,"pct":5.68}],"participation":44.96,"libelle":"Roquebilliere","adresse":"4 Rue Joseph Miceu, 06300 Nice","lat":43.718057,"lon":7.295686},{"bureau":"0822","inscrits":1091,"votants":505,"abstentions":586,"exprimes":500,"blancs":4,"nuls":1,"results":[{"nuance":"UG","nom":"SALERNO","prenom":"Olivier","voix":274,"elu":false,"pct":54.8},{"nuance":"UXD","nom":"CIOTTI","prenom":"Eric","voix":164,"elu":true,"pct":32.8},{"nuance":"ENS","nom":"MONETTI","prenom":"Graig","voix":62,"elu":false,"pct":12.4}],"participation":46.29,"libelle":"Pierre Semard","adresse":"4 Rue Joseph Miceu, 06300 Nice","lat":43.718057,"lon":7.295686},{"bureau":"0823","inscrits":815,"votants":505,"abstentions":310,"exprimes":488,"blancs":13,"nuls":4,"results":[{"nuance":"UG","nom":"QUIGNARD","prenom":"Laure","voix":253,"elu":false,"pct":51.84},{"nuance":"UXD","nom":"CHAIX","prenom":"Bernard","voix":235,"elu":true,"pct":48.16}],"participation":61.96,"libelle":"Marechal Lyautey","adresse":"5 Rue De La Gendarmerie, 06000 Nice","lat":43.711216,"lon":7.28057},{"bureau":"0824","inscrits":803,"votants":456,"abstentions":347,"exprimes":442,"blancs":11,"nuls":3,"results":[{"nuance":"UG","nom":"QUIGNARD","prenom":"Laure","voix":223,"elu":false,"pct":50.45},{"nuance":"UXD","nom":"CHAIX","prenom":"Bernard","voix":219,"elu":true,"pct":49.55}],"participation":56.79,"libelle":"Nathalie Masse","adresse":"5 Rue De La Gendarmerie, 06000 Nice","lat":43.711216,"lon":7.28057},{"bureau":"0825","inscrits":760,"votants":454,"abstentions":306,"exprimes":448,"blancs":4,"nuls":2,"results":[{"nuance":"UXD","nom":"CIOTTI","prenom":"Eric","voix":213,"elu":true,"pct":47.54},{"nuance":"UG","nom":"SALERNO","prenom":"Olivier","voix":178,"elu":false,"pct":39.73},{"nuance":"ENS","nom":"MONETTI","prenom":"Graig","voix":57,"elu":false,"pct":12.72}],"participation":59.74,"libelle":"D Angely","adresse":"4 Rue Louis Garneray, 06300 Nice","lat":43.706218,"lon":7.292598},{"bureau":"0901","inscrits":474,"votants":319,"abstentions":155,"exprimes":314,"blancs":4,"nuls":1,"results":[{"nuance":"UXD","nom":"CIOTTI","prenom":"Eric","voix":136,"elu":true,"pct":43.31},{"nuance":"ENS","nom":"MONETTI","prenom":"Graig","voix":100,"elu":false,"pct":31.85},{"nuance":"UG","nom":"SALERNO","prenom":"Olivier","voix":78,"elu":false,"pct":24.84}],"participation":67.3,"libelle":"Hotel De Ville","adresse":"5 Rue De L'Hotel De Ville, 06300 Nice","lat":43.696197,"lon":7.271743},{"bureau":"0902","inscrits":566,"votants":294,"abstentions":272,"exprimes":286,"blancs":5,"nuls":3,"results":[{"nuance":"UXD","nom":"CIOTTI","prenom":"Eric","voix":116,"elu":true,"pct":40.56},{"nuance":"UG","nom":"SALERNO","prenom":"Olivier","voix":96,"elu":false,"pct":33.57},{"nuance":"ENS","nom":"MONETTI","prenom":"Graig","voix":74,"elu":false,"pct":25.87}],"participation":51.94,"libelle":"Rossetti","adresse":"5 Rue De L'Hotel De Ville, 06300 Nice","lat":43.696197,"lon":7.271743},{"bureau":"0903","inscrits":586,"votants":341,"abstentions":245,"exprimes":337,"blancs":4,"nuls":0,"results":[{"nuance":"UXD","nom":"CIOTTI","prenom":"Eric","voix":134,"elu":true,"pct":39.76},{"nuance":"UG","nom":"SALERNO","prenom":"Olivier","voix":124,"elu":false,"pct":36.8},{"nuance":"ENS","nom":"MONETTI","prenom":"Graig","voix":79,"elu":false,"pct":23.44}],"participation":58.19,"libelle":"Corvesy","adresse":"3 Rue Raoul Bosio, 06300 Nice","lat":43.6967,"lon":7.273009},{"bureau":"0904","inscrits":727,"votants":401,"abstentions":326,"exprimes":391,"blancs":4,"nuls":6,"results":[{"nuance":"UG","nom":"SALERNO","prenom":"Olivier","voix":179,"elu":false,"pct":45.78},{"nuance":"UXD","nom":"CIOTTI","prenom":"Eric","voix":158,"elu":true,"pct":40.41},{"nuance":"ENS","nom":"MONETTI","prenom":"Graig","voix":54,"elu":false,"pct":13.81}],"participation":55.16,"libelle":"Le Chateau","adresse":"1 Calada Auguste Escoffier, 06300 Nice","lat":43.696952,"lon":7.272342},{"bureau":"0905","inscrits":729,"votants":458,"abstentions":271,"exprimes":444,"blancs":11,"nuls":3,"results":[{"nuance":"UXD","nom":"CIOTTI","prenom":"Eric","voix":245,"elu":true,"pct":55.18},{"nuance":"ENS","nom":"MONETTI","prenom":"Graig","voix":116,"elu":false,"pct":26.13},{"nuance":"UG","nom":"SALERNO","prenom":"Olivier","voix":83,"elu":false,"pct":18.69}],"participation":62.83,"libelle":"Carnot","adresse":"23 Rue Emmanuel Philibert, 06300 Nice","lat":43.697871,"lon":7.283026},{"bureau":"0906","inscrits":753,"votants":474,"abstentions":279,"exprimes":462,"blancs":8,"nuls":4,"results":[{"nuance":"UXD","nom":"CIOTTI","prenom":"Eric","voix":187,"elu":true,"pct":40.48},{"nuance":"UG","nom":"SALERNO","prenom":"Olivier","voix":177,"elu":false,"pct":38.31},{"nuance":"ENS","nom":"MONETTI","prenom":"Graig","voix":98,"elu":false,"pct":21.21}],"participation":62.95,"libelle":"Le Port","adresse":"23 Rue Emmanuel Philibert, 06300 Nice","lat":43.697871,"lon":7.283026},{"bureau":"0907","inscrits":962,"votants":637,"abstentions":325,"exprimes":619,"blancs":14,"nuls":4,"results":[{"nuance":"UXD","nom":"CIOTTI","prenom":"Eric","voix":275,"elu":true,"pct":44.43},{"nuance":"UG","nom":"SALERNO","prenom":"Olivier","voix":219,"elu":false,"pct":35.38},{"nuance":"ENS","nom":"MONETTI","prenom":"Graig","voix":125,"elu":false,"pct":20.19}],"participation":66.22,"libelle":"Fodere","adresse":"23 Rue Emmanuel Philibert, 06300 Nice","lat":43.697871,"lon":7.283026},{"bureau":"0908","inscrits":739,"votants":446,"abstentions":293,"exprimes":436,"blancs":7,"nuls":3,"results":[{"nuance":"UXD","nom":"CIOTTI","prenom":"Eric","voix":193,"elu":true,"pct":44.27},{"nuance":"UG","nom":"SALERNO","prenom":"Olivier","voix":163,"elu":false,"pct":37.39},{"nuance":"ENS","nom":"MONETTI","prenom":"Graig","voix":80,"elu":false,"pct":18.35}],"participation":60.35,"libelle":"Segurane","adresse":"1 BIS Rue Catherine Segurane, 06300 Nice","lat":43.698997,"lon":7.281616},{"bureau":"0909","inscrits":993,"votants":660,"abstentions":333,"exprimes":646,"blancs":12,"nuls":2,"results":[{"nuance":"UXD","nom":"CIOTTI","prenom":"Eric","voix":258,"elu":true,"pct":39.94},{"nuance":"UG","nom":"SALERNO","prenom":"Olivier","voix":249,"elu":false,"pct":38.54},{"nuance":"ENS","nom":"MONETTI","prenom":"Graig","voix":139,"elu":false,"pct":21.52}],"participation":66.47,"libelle":"Bonaparte","adresse":"6 Rue Papon, 06300 Nice","lat":43.701693,"lon":7.281366},{"bureau":"0910","inscrits":964,"votants":651,"abstentions":313,"exprimes":640,"blancs":9,"nuls":2,"results":[{"nuance":"UG","nom":"SALERNO","prenom":"Olivier","voix":241,"elu":false,"pct":37.66},{"nuance":"UXD","nom":"CIOTTI","prenom":"Eric","voix":229,"elu":true,"pct":35.78},{"nuance":"ENS","nom":"MONETTI","prenom":"Graig","voix":170,"elu":false,"pct":26.56}],"participation":67.53,"libelle":"Papon","adresse":"6 Rue Papon, 06300 Nice","lat":43.701693,"lon":7.281366},{"bureau":"0911","inscrits":750,"votants":501,"abstentions":249,"exprimes":495,"blancs":6,"nuls":0,"results":[{"nuance":"UXD","nom":"CIOTTI","prenom":"Eric","voix":235,"elu":true,"pct":47.47},{"nuance":"ENS","nom":"MONETTI","prenom":"Graig","voix":140,"elu":false,"pct":28.28},{"nuance":"UG","nom":"SALERNO","prenom":"Olivier","voix":120,"elu":false,"pct":24.24}],"participation":66.8,"libelle":"Franck Pilatte","adresse":"31 Boulevard Stalingrad, 06300 Nice","lat":43.697181,"lon":7.287051},{"bureau":"0912","inscrits":870,"votants":578,"abstentions":292,"exprimes":563,"blancs":10,"nuls":5,"results":[{"nuance":"UXD","nom":"CIOTTI","prenom":"Eric","voix":247,"elu":true,"pct":43.87},{"nuance":"ENS","nom":"MONETTI","prenom":"Graig","voix":161,"elu":false,"pct":28.6},{"nuance":"UG","nom":"SALERNO","prenom":"Olivier","voix":155,"elu":false,"pct":27.53}],"participation":66.44,"libelle":"Lympia","adresse":"31 Boulevard Stalingrad, 06300 Nice","lat":43.697181,"lon":7.287051},{"bureau":"0913","inscrits":821,"votants":570,"abstentions":251,"exprimes":556,"blancs":12,"nuls":2,"results":[{"nuance":"UXD","nom":"CIOTTI","prenom":"Eric","voix":253,"elu":true,"pct":45.5},{"nuance":"UG","nom":"SALERNO","prenom":"Olivier","voix":159,"elu":false,"pct":28.6},{"nuance":"ENS","nom":"MONETTI","prenom":"Graig","voix":144,"elu":false,"pct":25.9}],"participation":69.43,"libelle":"Stalingrad","adresse":"31 Boulevard Stalingrad, 06300 Nice","lat":43.697181,"lon":7.287051},{"bureau":"0914","inscrits":884,"votants":580,"abstentions":304,"exprimes":574,"blancs":4,"nuls":2,"results":[{"nuance":"UXD","nom":"CIOTTI","prenom":"Eric","voix":310,"elu":true,"pct":54.01},{"nuance":"ENS","nom":"MONETTI","prenom":"Graig","voix":154,"elu":false,"pct":26.83},{"nuance":"UG","nom":"SALERNO","prenom":"Olivier","voix":110,"elu":false,"pct":19.16}],"participation":65.61,"libelle":"Andre De Joly","adresse":"2 Corniche Andre De Joly, 06300 Nice","lat":43.700299,"lon":7.289019},{"bureau":"0915","inscrits":921,"votants":649,"abstentions":272,"exprimes":639,"blancs":6,"nuls":4,"results":[{"nuance":"UXD","nom":"CIOTTI","prenom":"Eric","voix":353,"elu":true,"pct":55.24},{"nuance":"ENS","nom":"MONETTI","prenom":"Graig","voix":199,"elu":false,"pct":31.14},{"nuance":"UG","nom":"SALERNO","prenom":"Olivier","voix":87,"elu":false,"pct":13.62}],"participation":70.47,"libelle":"Maeterlinck","adresse":"2 Corniche Andre De Joly, 06300 Nice","lat":43.700299,"lon":7.289019},{"bureau":"0916","inscrits":914,"votants":619,"abstentions":295,"exprimes":605,"blancs":12,"nuls":2,"results":[{"nuance":"UXD","nom":"CIOTTI","prenom":"Eric","voix":297,"elu":true,"pct":49.09},{"nuance":"ENS","nom":"MONETTI","prenom":"Graig","voix":158,"elu":false,"pct":26.12},{"nuance":"UG","nom":"SALERNO","prenom":"Olivier","voix":150,"elu":false,"pct":24.79}],"participation":67.72,"libelle":"Mont Boron","adresse":"2 Corniche Andre De Joly, 06300 Nice","lat":43.700299,"lon":7.289019},{"bureau":"0917","inscrits":572,"votants":399,"abstentions":173,"exprimes":393,"blancs":4,"nuls":2,"results":[{"nuance":"UXD","nom":"CIOTTI","prenom":"Eric","voix":210,"elu":true,"pct":53.44},{"nuance":"ENS","nom":"MONETTI","prenom":"Graig","voix":121,"elu":false,"pct":30.79},{"nuance":"UG","nom":"SALERNO","prenom":"Olivier","voix":62,"elu":false,"pct":15.78}],"participation":69.76,"libelle":"Col De Villefranche","adresse":"0 Avenue Jose Bernard, 06300 Nice","lat":43.706153,"lon":7.300713},{"bureau":"0918","inscrits":486,"votants":349,"abstentions":137,"exprimes":340,"blancs":8,"nuls":1,"results":[{"nuance":"UXD","nom":"CIOTTI","prenom":"Eric","voix":185,"elu":true,"pct":54.41},{"nuance":"ENS","nom":"MONETTI","prenom":"Graig","voix":93,"elu":false,"pct":27.35},{"nuance":"UG","nom":"SALERNO","prenom":"Olivier","voix":62,"elu":false,"pct":18.24}],"participation":71.81,"libelle":"Observatoire","adresse":"0 Avenue Bres, 06300 Nice","lat":43.720287,"lon":7.303495},{"bureau":"0919","inscrits":981,"votants":640,"abstentions":341,"exprimes":626,"blancs":10,"nuls":4,"results":[{"nuance":"UXD","nom":"CIOTTI","prenom":"Eric","voix":288,"elu":true,"pct":46.01},{"nuance":"UG","nom":"SALERNO","prenom":"Olivier","voix":209,"elu":false,"pct":33.39},{"nuance":"ENS","nom":"MONETTI","prenom":"Graig","voix":129,"elu":false,"pct":20.61}],"participation":65.24,"libelle":"Barla","adresse":"0 Place Arson, 06300 Nice","lat":43.702069,"lon":7.285713},{"bureau":"0920","inscrits":951,"votants":634,"abstentions":317,"exprimes":620,"blancs":11,"nuls":3,"results":[{"nuance":"UXD","nom":"CIOTTI","prenom":"Eric","voix":288,"elu":true,"pct":46.45},{"nuance":"UG","nom":"SALERNO","prenom":"Olivier","voix":203,"elu":false,"pct":32.74},{"nuance":"ENS","nom":"MONETTI","prenom":"Graig","voix":129,"elu":false,"pct":20.81}],"participation":66.67,"libelle":"Smolett","adresse":"0 Place Arson, 06300 Nice","lat":43.702069,"lon":7.285713},{"bureau":"0921","inscrits":979,"votants":648,"abstentions":331,"exprimes":626,"blancs":16,"nuls":6,"results":[{"nuance":"UXD","nom":"CIOTTI","prenom":"Eric","voix":262,"elu":true,"pct":41.85},{"nuance":"UG","nom":"SALERNO","prenom":"Olivier","voix":216,"elu":false,"pct":34.5},{"nuance":"ENS","nom":"MONETTI","prenom":"Graig","voix":148,"elu":false,"pct":23.64}],"participation":66.19,"libelle":"Arson","adresse":"0 Place Arson, 06300 Nice","lat":43.702069,"lon":7.285713},{"bureau":"0922","inscrits":930,"votants":625,"abstentions":305,"exprimes":608,"blancs":11,"nuls":6,"results":[{"nuance":"UXD","nom":"CIOTTI","prenom":"Eric","voix":305,"elu":true,"pct":50.16},{"nuance":"UG","nom":"SALERNO","prenom":"Olivier","voix":186,"elu":false,"pct":30.59},{"nuance":"ENS","nom":"MONETTI","prenom":"Graig","voix":117,"elu":false,"pct":19.24}],"participation":67.2,"libelle":"Ribotti","adresse":"4 Rue Ribotti, 06300 Nice","lat":43.702196,"lon":7.283944},{"bureau":"0923","inscrits":887,"votants":555,"abstentions":332,"exprimes":534,"blancs":18,"nuls":3,"results":[{"nuance":"UXD","nom":"CIOTTI","prenom":"Eric","voix":259,"elu":true,"pct":48.5},{"nuance":"UG","nom":"SALERNO","prenom":"Olivier","voix":169,"elu":false,"pct":31.65},{"nuance":"ENS","nom":"MONETTI","prenom":"Graig","voix":106,"elu":false,"pct":19.85}],"participation":62.57,"libelle":"Republique","adresse":"4 Rue Ribotti, 06300 Nice","lat":43.702196,"lon":7.283944},{"bureau":"0924","inscrits":888,"votants":553,"abstentions":335,"exprimes":540,"blancs":12,"nuls":1,"results":[{"nuance":"UXD","nom":"CIOTTI","prenom":"Eric","voix":266,"elu":true,"pct":49.26},{"nuance":"UG","nom":"SALERNO","prenom":"Olivier","voix":181,"elu":false,"pct":33.52},{"nuance":"ENS","nom":"MONETTI","prenom":"Graig","voix":93,"elu":false,"pct":17.22}],"participation":62.27,"libelle":"Richelmi","adresse":"6 Boulevard Pierre Sola, 06300 Nice","lat":43.707576,"lon":7.284824},{"bureau":"0925","inscrits":767,"votants":486,"abstentions":281,"exprimes":474,"blancs":7,"nuls":5,"results":[{"nuance":"UXD","nom":"CIOTTI","prenom":"Eric","voix":204,"elu":true,"pct":43.04},{"nuance":"UG","nom":"SALERNO","prenom":"Olivier","voix":150,"elu":false,"pct":31.65},{"nuance":"ENS","nom":"MONETTI","prenom":"Graig","voix":120,"elu":false,"pct":25.32}],"participation":63.36,"libelle":"Barberis","adresse":"9 Rue Thaon De Revel, 06300 Nice","lat":43.707262,"lon":7.284618},{"bureau":"0926","inscrits":845,"votants":539,"abstentions":306,"exprimes":524,"blancs":10,"nuls":5,"results":[{"nuance":"UXD","nom":"CIOTTI","prenom":"Eric","voix":260,"elu":true,"pct":49.62},{"nuance":"UG","nom":"SALERNO","prenom":"Olivier","voix":157,"elu":false,"pct":29.96},{"nuance":"ENS","nom":"MONETTI","prenom":"Graig","voix":107,"elu":false,"pct":20.42}],"participation":63.79,"libelle":"Pierre Sola","adresse":"6 Boulevard Pierre Sola, 06300 Nice","lat":43.707576,"lon":7.284824},{"bureau":"0927","inscrits":915,"votants":549,"abstentions":366,"exprimes":536,"blancs":9,"nuls":4,"results":[{"nuance":"UG","nom":"SALERNO","prenom":"Olivier","voix":255,"elu":false,"pct":47.57},{"nuance":"UXD","nom":"CIOTTI","prenom":"Eric","voix":195,"elu":true,"pct":36.38},{"nuance":"ENS","nom":"MONETTI","prenom":"Graig","voix":86,"elu":false,"pct":16.04}],"participation":60,"libelle":"Risso","adresse":"9 Rue Thaon De Revel, 06300 Nice","lat":43.707262,"lon":7.284618},{"bureau":"0928","inscrits":823,"votants":529,"abstentions":294,"exprimes":518,"blancs":9,"nuls":2,"results":[{"nuance":"UXD","nom":"CIOTTI","prenom":"Eric","voix":283,"elu":true,"pct":54.63},{"nuance":"ENS","nom":"MONETTI","prenom":"Graig","voix":133,"elu":false,"pct":25.68},{"nuance":"UG","nom":"SALERNO","prenom":"Olivier","voix":102,"elu":false,"pct":19.69}],"participation":64.28,"libelle":"Riquier","adresse":"6 Boulevard Pierre Sola, 06300 Nice","lat":43.707576,"lon":7.284824},{"bureau":"0929","inscrits":532,"votants":395,"abstentions":137,"exprimes":390,"blancs":4,"nuls":1,"results":[{"nuance":"UXD","nom":"CIOTTI","prenom":"Eric","voix":208,"elu":true,"pct":53.33},{"nuance":"ENS","nom":"MONETTI","prenom":"Graig","voix":128,"elu":false,"pct":32.82},{"nuance":"UG","nom":"SALERNO","prenom":"Olivier","voix":54,"elu":false,"pct":13.85}],"participation":74.25,"libelle":null,"adresse":null,"lat":null,"lon":null}]}