{"code":"06084","nom":"Mouans-Sartoux","tour1":null,"tour2":[{"bureau":"0001","inscrits":802,"votants":594,"abstentions":208,"exprimes":584,"blancs":8,"nuls":2,"results":[{"nuance":"LR","nom":"TABAROT","prenom":"Michèle","voix":357,"elu":true,"pct":61.13},{"nuance":"RN","nom":"GALBERT","prenom":"Franck","voix":227,"elu":false,"pct":38.87}],"participation":74.06,"libelle":"Mairie","adresse":"Place General De Gaulle, 06370","lat":43.620432,"lon":6.970391},{"bureau":"0002","inscrits":936,"votants":671,"abstentions":265,"exprimes":648,"blancs":21,"nuls":2,"results":[{"nuance":"LR","nom":"TABAROT","prenom":"Michèle","voix":357,"elu":true,"pct":55.09},{"nuance":"RN","nom":"GALBERT","prenom":"Franck","voix":291,"elu":false,"pct":44.91}],"participation":71.69,"libelle":"Ecole De L Oree Du Bois","adresse":"120, Route De Tiragon, 06370","lat":43.613723,"lon":6.967832},{"bureau":"0003","inscrits":906,"votants":654,"abstentions":252,"exprimes":622,"blancs":21,"nuls":11,"results":[{"nuance":"LR","nom":"TABAROT","prenom":"Michèle","voix":449,"elu":true,"pct":72.19},{"nuance":"RN","nom":"GALBERT","prenom":"Franck","voix":173,"elu":false,"pct":27.81}],"participation":72.19,"libelle":"Le Chateau","adresse":"Place S. De Villeneuve, 06370","lat":43.619994,"lon":6.969518},{"bureau":"0004","inscrits":888,"votants":578,"abstentions":310,"exprimes":549,"blancs":22,"nuls":7,"results":[{"nuance":"LR","nom":"TABAROT","prenom":"Michèle","voix":308,"elu":true,"pct":56.1},{"nuance":"RN","nom":"GALBERT","prenom":"Franck","voix":241,"elu":false,"pct":43.9}],"participation":65.09,"libelle":"Salle Leo Lagrange","adresse":"Pl. Des Anc. Combattants, 06370","lat":null,"lon":null},{"bureau":"0005","inscrits":946,"votants":671,"abstentions":275,"exprimes":656,"blancs":12,"nuls":3,"results":[{"nuance":"LR","nom":"TABAROT","prenom":"Michèle","voix":400,"elu":true,"pct":60.98},{"nuance":"RN","nom":"GALBERT","prenom":"Franck","voix":256,"elu":false,"pct":39.02}],"participation":70.93,"libelle":"Mediatheque","adresse":"201 Avenue De Cannes, 06370","lat":43.619174,"lon":6.97198},{"bureau":"0006","inscrits":879,"votants":642,"abstentions":237,"exprimes":624,"blancs":17,"nuls":1,"results":[{"nuance":"LR","nom":"TABAROT","prenom":"Michèle","voix":387,"elu":true,"pct":62.02},{"nuance":"RN","nom":"GALBERT","prenom":"Franck","voix":237,"elu":false,"pct":37.98}],"participation":73.04,"libelle":"Centre Communal Action Social","adresse":"Square De La Poste, 06370","lat":43.620712,"lon":6.97193},{"bureau":"0007","inscrits":803,"votants":532,"abstentions":271,"exprimes":518,"blancs":8,"nuls":6,"results":[{"nuance":"LR","nom":"TABAROT","prenom":"Michèle","voix":307,"elu":true,"pct":59.27},{"nuance":"RN","nom":"GALBERT","prenom":"Franck","voix":211,"elu":false,"pct":40.73}],"participation":66.25,"libelle":"Centre Associatif Municipal","adresse":"Chemin Des Plantiers, 06370","lat":43.621976,"lon":6.971259},{"bureau":"0008","inscrits":946,"votants":674,"abstentions":272,"exprimes":647,"blancs":19,"nuls":8,"results":[{"nuance":"LR","nom":"TABAROT","prenom":"Michèle","voix":454,"elu":true,"pct":70.17},{"nuance":"RN","nom":"GALBERT","prenom":"Franck","voix":193,"elu":false,"pct":29.83}],"participation":71.25,"libelle":"Salle Gabrielle Roustan","adresse":"31, Rue Des Magnans, 06370","lat":43.617617,"lon":6.971255},{"bureau":"0009","inscrits":797,"votants":583,"abstentions":214,"exprimes":561,"blancs":17,"nuls":5,"results":[{"nuance":"LR","nom":"TABAROT","prenom":"Michèle","voix":308,"elu":true,"pct":54.9},{"nuance":"RN","nom":"GALBERT","prenom":"Franck","voix":253,"elu":false,"pct":45.1}],"participation":73.15,"libelle":"Salle De L Oree Du Bois 2","adresse":"120, Route De Tiragon, 06370 Mouans Sartoux","lat":43.613723,"lon":6.967832},{"bureau":"0010","inscrits":813,"votants":567,"abstentions":246,"exprimes":541,"blancs":21,"nuls":5,"results":[{"nuance":"LR","nom":"TABAROT","prenom":"Michèle","voix":323,"elu":true,"pct":59.7},{"nuance":"RN","nom":"GALBERT","prenom":"Franck","voix":218,"elu":false,"pct":40.3}],"participation":69.74,"libelle":"Salle Leo Lagrange 2","adresse":"Pl. Des Anc. Combattants, 06370 Mouans Sartoux","lat":43.629616,"lon":6.979654}]}