{"code":"08490","nom":"Vouziers","tour1":null,"tour2":[{"bureau":"0001","inscrits":635,"votants":355,"abstentions":280,"exprimes":343,"blancs":7,"nuls":5,"results":[{"nuance":"DVD","nom":"WARSMANN","prenom":"Jean-Luc","voix":211,"elu":true,"pct":61.52},{"nuance":"RN","nom":"ROGER","prenom":"Isabelle","voix":132,"elu":false,"pct":38.48}],"participation":55.91,"libelle":"Salle Des Fetes","adresse":"16C Rue Du Chemin Sale, 08400 Vouziers","lat":49.398267,"lon":4.69752},{"bureau":"0002","inscrits":485,"votants":306,"abstentions":179,"exprimes":300,"blancs":4,"nuls":2,"results":[{"nuance":"DVD","nom":"WARSMANN","prenom":"Jean-Luc","voix":156,"elu":true,"pct":52},{"nuance":"RN","nom":"ROGER","prenom":"Isabelle","voix":144,"elu":false,"pct":48}],"participation":63.09,"libelle":"Salle Bellevue","adresse":"51 Rue De Conde, 08400 Vouziers","lat":49.402029,"lon":4.70106},{"bureau":"0003","inscrits":147,"votants":103,"abstentions":44,"exprimes":99,"blancs":4,"nuls":0,"results":[{"nuance":"DVD","nom":"WARSMANN","prenom":"Jean-Luc","voix":55,"elu":true,"pct":55.56},{"nuance":"RN","nom":"ROGER","prenom":"Isabelle","voix":44,"elu":false,"pct":44.44}],"participation":70.07,"libelle":"Salle Polyvalente De Chestres","adresse":"Rue De L'École, 08400 Vouziers","lat":49.408545,"lon":4.727784},{"bureau":"0004","inscrits":127,"votants":89,"abstentions":38,"exprimes":88,"blancs":1,"nuls":0,"results":[{"nuance":"DVD","nom":"WARSMANN","prenom":"Jean-Luc","voix":46,"elu":true,"pct":52.27},{"nuance":"RN","nom":"ROGER","prenom":"Isabelle","voix":42,"elu":false,"pct":47.73}],"participation":70.08,"libelle":"Salle De Reunions De Conde","adresse":"Place Jean Robic, 08400 Vouziers","lat":49.41314,"lon":4.699724},{"bureau":"0005","inscrits":813,"votants":528,"abstentions":285,"exprimes":519,"blancs":4,"nuls":5,"results":[{"nuance":"DVD","nom":"WARSMANN","prenom":"Jean-Luc","voix":345,"elu":true,"pct":66.47},{"nuance":"RN","nom":"ROGER","prenom":"Isabelle","voix":174,"elu":false,"pct":33.53}],"participation":64.94,"libelle":"Les Tourelles","adresse":"Rue Henrionnet, 08400 Vouziers","lat":49.395369,"lon":4.701782},{"bureau":"0006","inscrits":98,"votants":76,"abstentions":22,"exprimes":76,"blancs":0,"nuls":0,"results":[{"nuance":"DVD","nom":"WARSMANN","prenom":"Jean-Luc","voix":51,"elu":true,"pct":67.11},{"nuance":"RN","nom":"ROGER","prenom":"Isabelle","voix":25,"elu":false,"pct":32.89}],"participation":77.55,"libelle":"Mairie De Blaise","adresse":"13 Rue Henri Rouyer, 08400 Vouziers","lat":49.390315,"lon":4.656012},{"bureau":"0007","inscrits":240,"votants":175,"abstentions":65,"exprimes":174,"blancs":1,"nuls":0,"results":[{"nuance":"DVD","nom":"WARSMANN","prenom":"Jean-Luc","voix":87,"elu":true,"pct":50},{"nuance":"RN","nom":"ROGER","prenom":"Isabelle","voix":87,"elu":false,"pct":50}],"participation":72.92,"libelle":"Vrizy","adresse":"1 Place Jean Coignart, 08400 Vouziers","lat":49.426025,"lon":4.676753},{"bureau":"0008","inscrits":98,"votants":70,"abstentions":28,"exprimes":69,"blancs":0,"nuls":1,"results":[{"nuance":"DVD","nom":"WARSMANN","prenom":"Jean-Luc","voix":39,"elu":true,"pct":56.52},{"nuance":"RN","nom":"ROGER","prenom":"Isabelle","voix":30,"elu":false,"pct":43.48}],"participation":71.43,"libelle":"Terron Sur Aisne","adresse":"29 Rue De Vaulx En Velin, 08400 Vouziers","lat":49.452642,"lon":4.695063}]}