{"code":"09225","nom":"Pamiers","tour1":null,"tour2":[{"bureau":"0001","inscrits":707,"votants":468,"abstentions":239,"exprimes":437,"blancs":28,"nuls":3,"results":[{"nuance":"UG","nom":"PANIFOUS","prenom":"Laurent","voix":249,"elu":true,"pct":56.98},{"nuance":"RN","nom":"ALOZY","prenom":"Michèle","voix":188,"elu":false,"pct":43.02}],"participation":66.2,"libelle":"Salle Du Jeu Du Mail","adresse":"0 Av Du Jeu Du Mail, 09100 Pamiers","lat":43.12142,"lon":1.607442},{"bureau":"0002","inscrits":548,"votants":329,"abstentions":219,"exprimes":315,"blancs":9,"nuls":5,"results":[{"nuance":"UG","nom":"PANIFOUS","prenom":"Laurent","voix":175,"elu":true,"pct":55.56},{"nuance":"RN","nom":"ALOZY","prenom":"Michèle","voix":140,"elu":false,"pct":44.44}],"participation":60.04,"libelle":"Ecole Primaire Lestang","adresse":"14 R De Lestang, 09100 Pamiers","lat":43.121228,"lon":1.615201},{"bureau":"0003","inscrits":620,"votants":364,"abstentions":256,"exprimes":344,"blancs":13,"nuls":7,"results":[{"nuance":"UG","nom":"PANIFOUS","prenom":"Laurent","voix":200,"elu":true,"pct":58.14},{"nuance":"RN","nom":"ALOZY","prenom":"Michèle","voix":144,"elu":false,"pct":41.86}],"participation":58.71,"libelle":"Salle Des Capelles","adresse":"0 Pl Eugene Soula, 09100 Pamiers","lat":43.11357,"lon":1.610585},{"bureau":"0004","inscrits":720,"votants":445,"abstentions":275,"exprimes":427,"blancs":14,"nuls":4,"results":[{"nuance":"UG","nom":"PANIFOUS","prenom":"Laurent","voix":254,"elu":true,"pct":59.48},{"nuance":"RN","nom":"ALOZY","prenom":"Michèle","voix":173,"elu":false,"pct":40.52}],"participation":61.81,"libelle":"Ecole Des Carmes","adresse":"0 Bd. De La Liberation, 09100 Pamiers","lat":43.115634,"lon":1.606916},{"bureau":"0005","inscrits":781,"votants":470,"abstentions":311,"exprimes":458,"blancs":6,"nuls":6,"results":[{"nuance":"UG","nom":"PANIFOUS","prenom":"Laurent","voix":236,"elu":true,"pct":51.53},{"nuance":"RN","nom":"ALOZY","prenom":"Michèle","voix":222,"elu":false,"pct":48.47}],"participation":60.18,"libelle":"Ecole Primaire Cazale","adresse":"0 Av Irenee Cros, 09100 Pamiers","lat":43.110905,"lon":1.613447},{"bureau":"0006","inscrits":1014,"votants":751,"abstentions":263,"exprimes":713,"blancs":26,"nuls":12,"results":[{"nuance":"UG","nom":"PANIFOUS","prenom":"Laurent","voix":372,"elu":true,"pct":52.17},{"nuance":"RN","nom":"ALOZY","prenom":"Michèle","voix":341,"elu":false,"pct":47.83}],"participation":74.06,"libelle":"Salle De Basket Hall","adresse":"0 Av. De La Rijole, 09100 Pamiers","lat":43.123563,"lon":1.621437},{"bureau":"0007","inscrits":957,"votants":625,"abstentions":332,"exprimes":594,"blancs":20,"nuls":11,"results":[{"nuance":"UG","nom":"PANIFOUS","prenom":"Laurent","voix":323,"elu":true,"pct":54.38},{"nuance":"RN","nom":"ALOZY","prenom":"Michèle","voix":271,"elu":false,"pct":45.62}],"participation":65.31,"libelle":"C E S Bayle","adresse":"0 Av Du 9e Rcp, 09100 Pamiers","lat":43.115829,"lon":1.625136},{"bureau":"0008","inscrits":1031,"votants":668,"abstentions":363,"exprimes":636,"blancs":22,"nuls":10,"results":[{"nuance":"UG","nom":"PANIFOUS","prenom":"Laurent","voix":319,"elu":true,"pct":50.16},{"nuance":"RN","nom":"ALOZY","prenom":"Michèle","voix":317,"elu":false,"pct":49.84}],"participation":64.79,"libelle":"Salle Multisports Balussou","adresse":"0 Ch De Bourges, Pamiers","lat":43.127725,"lon":1.606991},{"bureau":"0009","inscrits":859,"votants":595,"abstentions":264,"exprimes":549,"blancs":27,"nuls":19,"results":[{"nuance":"UG","nom":"PANIFOUS","prenom":"Laurent","voix":310,"elu":true,"pct":56.47},{"nuance":"RN","nom":"ALOZY","prenom":"Michèle","voix":239,"elu":false,"pct":43.53}],"participation":69.27,"libelle":"Ecole Maternelle Gabriel Faure","adresse":"14 R Emile Gaillard, 09100 Pamiers","lat":43.11501,"lon":1.62323},{"bureau":"0010","inscrits":902,"votants":598,"abstentions":304,"exprimes":572,"blancs":21,"nuls":5,"results":[{"nuance":"UG","nom":"PANIFOUS","prenom":"Laurent","voix":340,"elu":true,"pct":59.44},{"nuance":"RN","nom":"ALOZY","prenom":"Michèle","voix":232,"elu":false,"pct":40.56}],"participation":66.3,"libelle":"Ecole Mat Condamines","adresse":"0 Av Irenee Cros, 09100 Pamiers","lat":43.110905,"lon":1.613447},{"bureau":"0011","inscrits":979,"votants":669,"abstentions":310,"exprimes":640,"blancs":17,"nuls":12,"results":[{"nuance":"UG","nom":"PANIFOUS","prenom":"Laurent","voix":338,"elu":true,"pct":52.81},{"nuance":"RN","nom":"ALOZY","prenom":"Michèle","voix":302,"elu":false,"pct":47.19}],"participation":68.34,"libelle":"Ecole Elementaire Des Canonges","adresse":"0 Ch De La Mole, 09100 Pamiers","lat":43.111303,"lon":1.627325}]}